"Sno","SP_CODE","DISTRICT","MANDAL","VILLAGE","LON","LAT","16-12-19","17-12-19","18-12-19","19-12-19","20-12-19","21-12-19","22-12-19","23-12-19","24-12-19","25-12-19"
1,826001,"PRAKASAM","JANAKAVARAMPANGULU","Ramakuru",80.03999,15.892867,80.205,78.32125,78.0575,81.60875,81.8775,81.335,79.265,77.7425,77.505,82.3225
2,1315004,"KURNOOL","JUPADUBUNGALOW","Bollavaram",78.377097,15.885363,71.6275,69.0775,68.8475,68.79625,68.38375,67.665,68.0725,62.755,55.385,62.7925
3,1330889,"KURNOOL","ATMAKURKURNOOL","Pinnapuram",78.654945,15.886427,74.97125,71.965,72.7975,72.33,70.50125,69.47625,72.3325,63.7275,58.535,67.8725
4,820009,"PRAKASAM","MARTUR","LakkavaramAgraharam",80.061727,15.906479,79.96875,78.015,77.94375,81.48625,83.05875,81.60125,77.8625,77.6525,77.235,82.115
5,1303014,"KURNOOL","MANTRALAYAM","Budur",77.380195,15.868793,66.05875,62.80625,64.25625,63.92,61.66,60.05,59.625,51.48,48.27,49.765
6,805004,"PRAKASAM","DONAKONDA","PadamaraLakshmipuram",79.387233,15.888066,80.4875,76.905,76.75875,80.19625,78.81125,78.46,76.885,74.97,74.3875,76.1625
7,822002,"PRAKASAM","KARAMCHEDU","Karamchedu1",80.321381,15.887126,79.03,77.5975,79.0725,82.295,83.3675,83.2475,77.7375,76.7525,79.1275,83.3125
8,806008,"PRAKASAM","PEDAARAVEEDU","BoyadaGumpula",79.243357,15.885803,80.7375,77.4625,76.74125,79.4775,74.72125,73.99,75.73,74.2275,72.4925,74.61
9,1301011,"KURNOOL","KOWTHALAM","Thippaladoddi",77.165642,15.871667,65.32625,62.07,62.66125,63.135,60.3225,58.19125,57.5,49.295,47.4625,47.205
10,1307007,"KURNOOL","KURNOOL","G.Singavaram1",77.934328,15.87304,67.575,65.2925,65.8025,65.7725,63.87,62.71625,62.5775,54.375,51.3775,53.5375
11,806007,"PRAKASAM","PEDAARAVEEDU","ThokaPalle",79.291841,15.882713,80.1075,75.69375,76.725,78.92875,76.22375,75.8975,75.875,74.2275,73.525,75.125
12,1301001,"KURNOOL","KOWTHALAM","Nadichagi",77.050836,15.858904,64.0825,60.91125,61.57,62.0925,58.835,55.945,55.155,47.2875,45.815,45.6925
13,1303015,"KURNOOL","MANTRALAYAM","Chilakaladona",77.417441,15.866402,66.05875,62.80625,64.25625,63.92,61.66,60.05,59.625,51.48,48.27,49.765
14,756005,"GUNTUR","KARLAPALEM","Perali",80.564029,15.892302,77.825,75.8,76.7725,83.0975,84.52875,84.93625,76.595,75.65,78.035,83.93
15,806005,"PRAKASAM","PEDAARAVEEDU","Cumbampadu",79.334104,15.878309,80.1075,75.69375,76.725,78.92875,76.22375,75.8975,75.875,74.2275,73.525,75.125
16,805003,"PRAKASAM","DONAKONDA","PolePalle",79.430973,15.87979,80.4875,76.905,76.75875,80.19625,78.81125,78.46,76.885,74.97,74.3875,76.1625
17,1314002,"KURNOOL","PAMULAPADU","Jutur",78.448881,15.870672,71.6275,69.0775,68.8475,68.79625,68.38375,67.665,68.0725,62.755,55.385,62.7925
18,806004,"PRAKASAM","PEDAARAVEEDU","Ambapuram",79.335029,15.893988,80.1075,75.69375,76.725,78.92875,76.22375,75.8975,75.875,74.2275,73.525,75.125
19,1314003,"KURNOOL","PAMULAPADU","Chelimella",78.480902,15.863307,70.27625,68.64125,68.55875,68.7525,66.90375,67.83625,68.365,61.9825,55.8575,65.7875
20,1302015,"KURNOOL","KOSIGI","Yandapalle",77.215956,15.869363,65.32625,62.07,62.66125,63.135,60.3225,58.19125,57.5,49.295,47.4625,47.205
21,804019,"PRAKASAM","KURICHEDU","Dekanakonda",79.671579,15.883023,78.33375,75.655,75.99,76.925,77.16,78.11375,75.7925,72.55,72.59,76.18
22,757017,"GUNTUR","BAPATLA","BapatlaWestRural",80.435648,15.887003,78.4675,76.56875,78.045,83.2025,84.26,84.1825,78.425,77.3525,78.8875,83.6
23,807016,"PRAKASAM","DORNALA","ChilakaCherlaGudem",79.004664,15.885889,84.8425,80.8075,80.02625,81.57,76.93125,77.845,78.495,71.14,69.9675,76.43
24,1307001,"KURNOOL","KURNOOL","Sunkesula",77.834714,15.870627,67.3325,64.2625,65.72125,65.7725,63.92125,62.43375,62.425,54.635,51.1425,53.2975
25,1315003,"KURNOOL","JUPADUBUNGALOW","Tangadancha",78.353557,15.866583,71.6275,69.0775,68.8475,68.79625,68.38375,67.665,68.0725,62.755,55.385,62.7925
26,820013,"PRAKASAM","MARTUR","BollaPalle",80.09087,15.883023,79.96875,78.015,77.94375,81.48625,83.05875,81.60125,77.8625,77.6525,77.235,82.115
27,1301010,"KURNOOL","KOWTHALAM","Chudi",77.14523,15.85101,64.0825,60.91125,61.57,62.0925,58.835,55.945,55.155,47.2875,45.815,45.6925
28,814004,"PRAKASAM","MUNDLAMURU","Purimetla",79.845342,15.879728,78.4075,75.835,76.0725,78.76625,77.435,78.12,76.6775,72.7375,74.385,78.4825
29,1305005,"KURNOOL","CBELAGAL","Kothakota1",77.797096,15.863397,67.3325,64.2625,65.72125,65.7725,63.92125,62.43375,62.425,54.635,51.1425,53.2975
30,1307008,"KURNOOL","KURNOOL","Nidzur",77.97209,15.86234,68.02125,65.6575,65.7525,66.5225,63.7925,62.71625,62.705,54.135,50.8675,54.35
31,1302024,"KURNOOL","KOSIGI","Kosigi1",77.247141,15.839242,65.48875,62.12,63.2725,62.525,59.37125,57.73125,55.7325,48.04,47.235,44.865
32,757019,"GUNTUR","BAPATLA","Adivi",80.486393,15.850878,77.41125,75.40125,76.57125,82.8975,83.8625,83.51375,77.75,75.94,78.0025,82.84
33,814010,"PRAKASAM","MUNDLAMURU","Marella",79.886427,15.871709,79.285,76.945,77.1475,80.37875,79.2825,79.6775,78.18,75.18,76.395,80.72
34,814006,"PRAKASAM","MUNDLAMURU","Vemula1",79.76763,15.869017,78.4075,75.835,76.0725,78.76625,77.435,78.12,76.6775,72.7375,74.385,78.4825
35,1303013,"KURNOOL","MANTRALAYAM","Sunkeswari",77.346557,15.85722,66.1625,62.85625,63.78875,63.96875,61.49375,59.64625,58.9925,50.965,48.46,48.765
36,1308007,"KURNOOL","NANDIKOTKUR","Allur1",78.201215,15.870373,72.33875,69.29125,69.58625,70.585,68.53625,66.91125,67.1825,60.13,57.145,62.3825
37,807013,"PRAKASAM","DORNALA","Nallaguntla",78.925441,15.869878,83.6625,80.6075,79.76375,79.995,76.4375,77.17375,79.06,72.43,70.535,75.0175
38,804018,"PRAKASAM","KURICHEDU","Peddavaram",79.638402,15.869502,79.52375,77.22875,76.9975,79.21875,80.24625,79.5875,76.245,74.5425,74.025,76.295
39,1311007,"KURNOOL","ATMAKURKURNOOL","Krishnapuram1",78.639276,15.877106,71.51,69.4625,69.88,70.275,69.9475,67.87125,69.22,62.4225,57.28,67.7525
40,825001,"PRAKASAM","INKOLLU","Nagandla",80.146407,15.880184,79.96875,78.015,77.94375,81.48625,83.05875,81.60125,77.8625,77.6525,77.235,82.115
41,890901,"PRAKASAM","PEDAARAVEEDU","Forest",79.272004,15.877625,80.1075,75.69375,76.725,78.92875,76.22375,75.8975,75.875,74.2275,73.525,75.125
42,744020,"GUNTUR","NUZENDLA","Thimmapuram",79.744318,15.87715,78.33375,75.655,75.99,76.925,77.16,78.11375,75.7925,72.55,72.59,76.18
43,804009,"PRAKASAM","KURICHEDU","NamassivayaPuram",79.60792,15.881807,79.52375,77.22875,76.9975,79.21875,80.24625,79.5875,76.245,74.5425,74.025,76.295
44,1302023,"KURNOOL","KOSIGI","Pendekal",77.26401,15.853554,66.1625,62.85625,63.78875,63.96875,61.49375,59.64625,58.9925,50.965,48.46,48.765
45,1301012,"KURNOOL","KOWTHALAM","Karani1",77.177816,15.85531,65.32625,62.07,62.66125,63.135,60.3225,58.19125,57.5,49.295,47.4625,47.205
46,1315007,"KURNOOL","JUPADUBUNGALOW","Bannur",78.398107,15.860723,71.6275,69.0775,68.8475,68.79625,68.38375,67.665,68.0725,62.755,55.385,62.7925
47,1314004,"KURNOOL","PAMULAPADU","Iskala",78.51594,15.859633,70.27625,68.64125,68.55875,68.7525,66.90375,67.83625,68.365,61.9825,55.8575,65.7875
48,807011,"PRAKASAM","DORNALA","Pedamanthanala",78.891419,15.881823,83.6625,80.6075,79.76375,79.995,76.4375,77.17375,79.06,72.43,70.535,75.0175
49,1304013,"KURNOOL","NANDAVARAM","Ponakaladinne",77.595749,15.843108,68.01375,64.3925,65.48,66.0425,63.04875,62.2425,61.0525,55.0725,50.9475,52.145
50,757020,"GUNTUR","BAPATLA","MaruproluvaripalemRural",80.469103,15.876046,77.41125,75.40125,76.57125,82.8975,83.8625,83.51375,77.75,75.94,78.0025,82.84
51,1305009,"KURNOOL","CBELAGAL","C.Belagal",77.662399,15.831281,67.85,63.885,65.2625,65.785,63.16625,61.97,60.9425,54.615,50.43,52.9825
52,1302026,"KURNOOL","KOSIGI","Vandagallu",77.202795,15.844364,65.48875,62.12,63.2725,62.525,59.37125,57.73125,55.7325,48.04,47.235,44.865
53,1302025,"KURNOOL","KOSIGI","Nelakosigi",77.227482,15.845152,65.48875,62.12,63.2725,62.525,59.37125,57.73125,55.7325,48.04,47.235,44.865
54,1308009,"KURNOOL","NANDIKOTKUR","NandiKotkur1",78.257581,15.855879,70.4825,66.9875,67.32,67.9125,66.6025,65.51375,65.905,59.715,54.93,61.165
55,1307006,"KURNOOL","KURNOOL","Basavapuram",77.91545,15.849253,67.7575,65.11375,65.28375,66.27875,63.63375,62.2375,60.9425,53.5575,50.8275,53.325
56,1307014,"KURNOOL","KURNOOL","E.Thandrapadu",78.050918,15.857393,70.0375,67.30625,67.44875,68.23125,65.7125,64.29875,64.6075,56.56,53.4375,58.57
57,822006,"PRAKASAM","KARAMCHEDU","Swarna",80.284883,15.858035,79.03,77.5975,79.0725,82.295,83.3675,83.2475,77.7375,76.7525,79.1275,83.3125
58,826002,"PRAKASAM","JANAKAVARAMPANGULU","KondaManjulur",80.08506,15.866574,79.96875,78.015,77.94375,81.48625,83.05875,81.60125,77.8625,77.6525,77.235,82.115
59,1301018,"KURNOOL","KOWTHALAM","Katriki",77.08266,15.84308,63.57625,59.7575,60.735,60.4375,57.3825,55.335,53.695,45.76,45.2975,42.795
60,822004,"PRAKASAM","KARAMCHEDU","Daggubadu",80.214696,15.869375,79.41625,77.8325,78.2925,81.8575,82.64375,82.23125,76.4975,77.21,77.72,82.5175
61,806009,"PRAKASAM","PEDAARAVEEDU","Badveedu",79.202687,15.867748,80.7375,77.4625,76.74125,79.4775,74.72125,73.99,75.73,74.2275,72.4925,74.61
62,816007,"PRAKASAM","ADDANKI","ChakrayaPalem",79.953379,15.870226,80.205,78.32125,78.0575,81.60875,81.8775,81.335,79.265,77.7425,77.505,82.3225
63,805006,"PRAKASAM","DONAKONDA","RudraSamudram",79.407898,15.854422,80.4875,76.905,76.75875,80.19625,78.81125,78.46,76.885,74.97,74.3875,76.1625
64,1307009,"KURNOOL","KURNOOL","Munagalapadu",77.99343,15.853307,68.02125,65.6575,65.7525,66.5225,63.7925,62.71625,62.705,54.135,50.8675,54.35
65,816006,"PRAKASAM","ADDANKI","Kalavakuru",79.992281,15.869266,80.205,78.32125,78.0575,81.60875,81.8775,81.335,79.265,77.7425,77.505,82.3225
66,807010,"PRAKASAM","DORNALA","RollaPenta",78.851539,15.873549,83.6625,80.6075,79.76375,79.995,76.4375,77.17375,79.06,72.43,70.535,75.0175
67,1311008,"KURNOOL","ATMAKURKURNOOL","Siddepalle",78.621951,15.854083,71.51,69.4625,69.88,70.275,69.9475,67.87125,69.22,62.4225,57.28,67.7525
68,807019,"PRAKASAM","DORNALA","KataKaniPalle",79.148577,15.862077,81.9975,78.28,77.5425,80.6625,75.435,75.2975,77.3525,72.63,69.23,75.3825
69,890902,"PRAKASAM","PEDAARAVEEDU","Forest1",79.29462,15.83525,81.66875,76.79375,78.11125,79.84,78.515,77.41,76.7625,74.7175,74.4375,75.55
70,805005,"PRAKASAM","DONAKONDA","Ramapuram1",79.371499,15.866269,80.4875,76.905,76.75875,80.19625,78.81125,78.46,76.885,74.97,74.3875,76.1625
71,1303016,"KURNOOL","MANTRALAYAM","HagaruruThimmapuram",77.383155,15.837778,67.7425,64.64,65.59,65.135,62.04,61.82125,59.5175,51.2125,50.99,49.0975
72,1305006,"KURNOOL","CBELAGAL","Polakal",77.745425,15.831633,67.85,63.885,65.2625,65.785,63.16625,61.97,60.9425,54.615,50.43,52.9825
73,1301017,"KURNOOL","KOWTHALAM","Podalakunta",77.114373,15.844243,63.57625,59.7575,60.735,60.4375,57.3825,55.335,53.695,45.76,45.2975,42.795
74,754888,"GUNTUR","NIZAMPATNAM","Dindi",80.744578,15.848695,77.67375,76.525,77.47,81.2875,84.51625,82.66625,70.73,72.1125,71.9475,80.2825
75,1311010,"KURNOOL","ATMAKURKURNOOL","Karivena",78.551542,15.854459,71.51,69.4625,69.88,70.275,69.9475,67.87125,69.22,62.4225,57.28,67.7525
76,807014,"PRAKASAM","DORNALA","NallaGuntlaGudem",78.892899,15.87313,83.6625,80.6075,79.76375,79.995,76.4375,77.17375,79.06,72.43,70.535,75.0175
77,1304017,"KURNOOL","NANDAVARAM","Halaharvi1",77.432051,15.82519,67.7425,64.64,65.59,65.135,62.04,61.82125,59.5175,51.2125,50.99,49.0975
78,1311006,"KURNOOL","ATMAKURKURNOOL","Siddapuram",78.66431,15.855859,74.97125,71.965,72.7975,72.33,70.50125,69.47625,72.3325,63.7275,58.535,67.8725
79,1301019,"KURNOOL","KOWTHALAM","Myaliganur",77.04405,15.838673,63.11875,58.68625,59.59875,59.715,56.56125,54.075,52.91,45.7375,45.0725,42.9
80,805007,"PRAKASAM","DONAKONDA","BadaPuram",79.46873,15.851481,80.475,77.87875,77.085,80.295,79.1675,79.7725,76.8275,75.5025,75.35,76.725
81,1302020,"KURNOOL","KOSIGI","Pallipadu",77.311235,15.844938,67.21875,64.1225,65.72125,64.63375,61.1875,60.59625,58.325,50.0625,49.38,47.46
82,806006,"PRAKASAM","PEDAARAVEEDU","ThangiralaPalle",79.306692,15.843406,81.66875,76.79375,78.11125,79.84,78.515,77.41,76.7625,74.7175,74.4375,75.55
83,1307015,"KURNOOL","KURNOOL","Gondiparla",78.071992,15.836684,70.60125,66.995,66.94625,67.955,64.22875,63.23375,63.06,54.5375,51.7075,57.68
84,1301013,"KURNOOL","KOWTHALAM","Mallanahatti",77.180339,15.831734,65.48875,62.12,63.2725,62.525,59.37125,57.73125,55.7325,48.04,47.235,44.865
85,1302022,"KURNOOL","KOSIGI","Chintakunta",77.280503,15.840529,67.21875,64.1225,65.72125,64.63375,61.1875,60.59625,58.325,50.0625,49.38,47.46
86,1307010,"KURNOOL","KURNOOL","Mamidalapadu",78.006022,15.842354,68.79375,65.92625,65.7075,67.24625,63.94125,62.375,61.475,53.8325,50.56,54.4125
87,804014,"PRAKASAM","KURICHEDU","GangadonaKonda",79.526818,15.857683,80.475,77.87875,77.085,80.295,79.1675,79.7725,76.8275,75.5025,75.35,76.725
88,804016,"PRAKASAM","KURICHEDU","Alavalapadu",79.574367,15.853753,79.52375,77.22875,76.9975,79.21875,80.24625,79.5875,76.245,74.5425,74.025,76.295
89,1301014,"KURNOOL","KOWTHALAM","Chirtapalle",77.164225,15.827028,65.48875,62.12,63.2725,62.525,59.37125,57.73125,55.7325,48.04,47.235,44.865
90,1306004,"KURNOOL","GUDURKURNOOL","Mallapuram",77.808506,15.834945,67.9175,64.535,65.425,65.90875,63.7675,62.27875,61.205,55.0975,51.2875,54.0725
91,806010,"PRAKASAM","PEDAARAVEEDU","Pragallapadu",79.241946,15.853006,80.7375,77.4625,76.74125,79.4775,74.72125,73.99,75.73,74.2275,72.4925,74.61
92,813009,"PRAKASAM","DARSI","Devavaram",79.697216,15.855178,78.33375,75.655,75.99,76.925,77.16,78.11375,75.7925,72.55,72.59,76.18
93,814007,"PRAKASAM","MUNDLAMURU","Vemulabanda",79.792682,15.864356,78.4075,75.835,76.0725,78.76625,77.435,78.12,76.6775,72.7375,74.385,78.4825
94,1307002,"KURNOOL","KURNOOL","Remata",77.850308,15.831649,67.7575,65.11375,65.28375,66.27875,63.63375,62.2375,60.9425,53.5575,50.8275,53.325
95,825004,"PRAKASAM","INKOLLU","Pavulur",80.168854,15.855691,79.41625,77.8325,78.2925,81.8575,82.64375,82.23125,76.4975,77.21,77.72,82.5175
96,823005,"PRAKASAM","CHIRALA","GavinivariPalem",80.434473,15.846975,80.87125,79.3325,80.89875,84.8275,85.08875,85.55875,76.0775,77.2025,80.1875,84.065
97,1308008,"KURNOOL","NANDIKOTKUR","Vaddamanu",78.198218,15.844669,71.88625,68.0275,68.4075,68.62125,65.55625,64.8625,64.685,56.4025,54.0675,60.6975
98,1303017,"KURNOOL","MANTRALAYAM","SowlaHalli",77.349427,15.837846,67.21875,64.1225,65.72125,64.63375,61.1875,60.59625,58.325,50.0625,49.38,47.46
99,814008,"PRAKASAM","MUNDLAMURU","Umamaheswarapuram",79.81612,15.856924,78.4075,75.835,76.0725,78.76625,77.435,78.12,76.6775,72.7375,74.385,78.4825
100,823002,"PRAKASAM","CHIRALA","IpuruPalemRural",80.394723,15.838719,80.87125,79.3325,80.89875,84.8275,85.08875,85.55875,76.0775,77.2025,80.1875,84.065
101,1305010,"KURNOOL","CBELAGAL","Kambadahal",77.625718,15.829126,68.01375,64.3925,65.48,66.0425,63.04875,62.2425,61.0525,55.0725,50.9475,52.145
102,804017,"PRAKASAM","KURICHEDU","Bodanampadu",79.613146,15.844473,81.16875,77.085,77.695,78.6725,79.9,79.84125,76.89,75.72,74.705,77.675
103,826003,"PRAKASAM","JANAKAVARAMPANGULU","Bytamanjulur",80.053078,15.860049,79.96875,78.015,77.94375,81.48625,83.05875,81.60125,77.8625,77.6525,77.235,82.115
104,1306003,"KURNOOL","GUDURKURNOOL","Munagala",77.788504,15.828891,67.9175,64.535,65.425,65.90875,63.7675,62.27875,61.205,55.0975,51.2875,54.0725
105,890903,"PRAKASAM","PEDAARAVEEDU","Forest2",79.254261,15.840844,81.66875,76.79375,78.11125,79.84,78.515,77.41,76.7625,74.7175,74.4375,75.55
106,806011,"PRAKASAM","PEDAARAVEEDU","Gobburu",79.268763,15.83532,81.66875,76.79375,78.11125,79.84,78.515,77.41,76.7625,74.7175,74.4375,75.55
107,1307017,"KURNOOL","KURNOOL","Pudur",78.143665,15.829749,70.60125,66.995,66.94625,67.955,64.22875,63.23375,63.06,54.5375,51.7075,57.68
108,1315002,"KURNOOL","JUPADUBUNGALOW","Tartur",78.31535,15.838149,72.77,68.935,69.1875,69.07625,68.07125,66.3875,66.1025,59.5225,55.9425,61.84
109,1301016,"KURNOOL","KOWTHALAM","Madire",77.114729,15.834535,63.57625,59.7575,60.735,60.4375,57.3825,55.335,53.695,45.76,45.2975,42.795
110,1302021,"KURNOOL","KOSIGI","Kalavalagundu",77.305947,15.833925,67.21875,64.1225,65.72125,64.63375,61.1875,60.59625,58.325,50.0625,49.38,47.46
111,1314007,"KURNOOL","PAMULAPADU","Pamulapadu1",78.498923,15.830922,73.12,69.90125,70.75875,70.195,67.33,68.9725,68.495,61.875,59.8,65.72
112,1303018,"KURNOOL","MANTRALAYAM","Malapalle",77.339749,15.823725,67.21875,64.1225,65.72125,64.63375,61.1875,60.59625,58.325,50.0625,49.38,47.46
113,804015,"PRAKASAM","KURICHEDU","WestGangavaram",79.552664,15.819947,81.16875,77.085,77.695,78.6725,79.9,79.84125,76.89,75.72,74.705,77.675
114,1390901,"KURNOOL","KURNOOL","Roja",78.033758,15.84484,68.79375,65.92625,65.7075,67.24625,63.94125,62.375,61.475,53.8325,50.56,54.4125
115,1307005,"KURNOOL","KURNOOL","Ulchala",77.915586,15.819836,67.7575,65.11375,65.28375,66.27875,63.63375,62.2375,60.9425,53.5575,50.8275,53.325
116,822005,"PRAKASAM","KARAMCHEDU","Kesavarappadu",80.246146,15.858897,79.41625,77.8325,78.2925,81.8575,82.64375,82.23125,76.4975,77.21,77.72,82.5175
117,1301015,"KURNOOL","KOWTHALAM","Sulakeri",77.123858,15.823858,63.57625,59.7575,60.735,60.4375,57.3825,55.335,53.695,45.76,45.2975,42.795
118,805016,"PRAKASAM","DONAKONDA","KotcherlaKota",79.349078,15.825575,81.66875,76.79375,78.11125,79.84,78.515,77.41,76.7625,74.7175,74.4375,75.55
119,814012,"PRAKASAM","MUNDLAMURU","KhambhamPaduEast",79.92878,15.851071,79.285,76.945,77.1475,80.37875,79.2825,79.6775,78.18,75.18,76.395,80.72
120,1315008,"KURNOOL","JUPADUBUNGALOW","Tarigopula",78.4254,15.83338,73.315,70.1175,70.3025,70.06875,67.41,68.02625,68.305,62.3525,57.99,63.695
121,813008,"PRAKASAM","DARSI","PothaVaram",79.668832,15.849953,80.56625,76.78625,77.21875,79.00125,79.93625,79.4425,76.81,74.72,74.825,79.26
122,1321005,"KURNOOL","YEMMIGANUR","Tsallakudlur",77.54292,15.824405,67.775,64.545,65.61125,65.3725,62.5325,62.085,60.2625,53.035,51.4225,50.39
123,814009,"PRAKASAM","MUNDLAMURU","Thammaluru",79.835954,15.840652,80.63,76.71125,77.03375,80.0125,79.55375,79.76875,77.3625,74.75,76.4,80.0175
124,1322003,"KURNOOL","PEDDAKADUBUR","Basaladoddi",77.289518,15.817978,67.21875,64.1225,65.72125,64.63375,61.1875,60.59625,58.325,50.0625,49.38,47.46
125,1301020,"KURNOOL","KOWTHALAM","Lingaladinne",77.082671,15.824303,63.57625,59.7575,60.735,60.4375,57.3825,55.335,53.695,45.76,45.2975,42.795
126,1390902,"KURNOOL","KURNOOL","KurnoolRural",78.033357,15.832907,68.79375,65.92625,65.7075,67.24625,63.94125,62.375,61.475,53.8325,50.56,54.4125
127,1314005,"KURNOOL","PAMULAPADU","Kambalapalle",78.501724,15.839774,73.12,69.90125,70.75875,70.195,67.33,68.9725,68.495,61.875,59.8,65.72
128,1321006,"KURNOOL","YEMMIGANUR","Divamdinne",77.581681,15.826179,68.01375,64.3925,65.48,66.0425,63.04875,62.2425,61.0525,55.0725,50.9475,52.145
129,805009,"PRAKASAM","DONAKONDA","Yerrabalem1",79.51199,15.839241,82.115,78.0075,77.85375,79.41,80.1375,80.41125,77.7325,76.4575,75.8925,77.1625
130,890904,"PRAKASAM","CHIRALA","Perala",80.357931,15.843271,80.87125,79.3325,80.89875,84.8275,85.08875,85.55875,76.0775,77.2025,80.1875,84.065
131,816010,"PRAKASAM","ADDANKI","Bommanampadu",80.015406,15.841339,81.51625,80.18375,79.2675,82.5675,83.415,82.4875,80.0575,77.2375,79.2625,82.0825
132,826004,"PRAKASAM","JANAKAVARAMPANGULU","Muppavaram",80.04282,15.841643,81.51625,80.18375,79.2675,82.5675,83.415,82.4875,80.0575,77.2375,79.2625,82.0825
133,826007,"PRAKASAM","JANAKAVARAMPANGULU","Budavada",80.134745,15.840845,81.38375,80.5325,79.67875,83.30375,84.715,83.1025,79.23,78.105,79.47,82.6825
134,814014,"PRAKASAM","MUNDLAMURU","Peddaravipadu",79.857509,15.828913,80.98875,78.075,77.71125,80.94875,80.9175,80.9225,78.83,75.78,77.955,80.8525
135,890905,"PRAKASAM","PEDAARAVEEDU","Forest3",79.210704,15.848387,82.31,77.07125,79.0925,79.03625,77.4325,76.05875,77.2125,73.89,74.655,75.725
136,816011,"PRAKASAM","ADDANKI","AddankiPT",79.996691,15.801834,81.51625,80.18375,79.2675,82.5675,83.415,82.4875,80.0575,77.2375,79.2625,82.0825
137,1322007,"KURNOOL","PEDDAKADUBUR","Kambaladinne",77.363985,15.794919,67.7425,64.64,65.59,65.135,62.04,61.82125,59.5175,51.2125,50.99,49.0975
138,1302028,"KURNOOL","KOSIGI","Gowdegallu",77.217194,15.819593,65.48875,62.12,63.2725,62.525,59.37125,57.73125,55.7325,48.04,47.235,44.865
139,1311009,"KURNOOL","ATMAKURKURNOOL","Nallakalva",78.586003,15.83096,75.04375,71.9,72.72875,72.2625,71.44625,70.41625,71.0175,65.14,63.1325,69.385
140,1390903,"KURNOOL","KURNOOL","KurnoolMCorp.",78.050191,15.828149,70.60125,66.995,66.94625,67.955,64.22875,63.23375,63.06,54.5375,51.7075,57.68
141,822007,"PRAKASAM","KARAMCHEDU","KodavalivariPalem",80.265477,15.826242,80.20625,78.745,80.39,84.14625,85.44375,84.295,77.725,77.895,80.605,83.405
142,1301024,"KURNOOL","KOWTHALAM","Urukunda",77.166085,15.806813,65.48875,62.12,63.2725,62.525,59.37125,57.73125,55.7325,48.04,47.235,44.865
143,1318003,"KURNOOL","KALLUR","Peddapadu",77.968116,15.817779,68.79375,65.92625,65.7075,67.24625,63.94125,62.375,61.475,53.8325,50.56,54.4125
144,1301021,"KURNOOL","KOWTHALAM","Agasaladinne",77.08686,15.812913,63.57625,59.7575,60.735,60.4375,57.3825,55.335,53.695,45.76,45.2975,42.795
145,825005,"PRAKASAM","INKOLLU","Inkollu1",80.196214,15.825137,80.53125,79.68,80.2675,83.51125,85.36375,83.40875,77.7675,78.5325,80.13,83.1725
146,1302027,"KURNOOL","KOSIGI","Zumaladinne",77.197697,15.814139,65.48875,62.12,63.2725,62.525,59.37125,57.73125,55.7325,48.04,47.235,44.865
147,805008,"PRAKASAM","DONAKONDA","VeeraVenkataPuram",79.490466,15.845387,82.115,78.0075,77.85375,79.41,80.1375,80.41125,77.7325,76.4575,75.8925,77.1625
148,805017,"PRAKASAM","DONAKONDA","Siddayapalem",79.327674,15.829806,81.66875,76.79375,78.11125,79.84,78.515,77.41,76.7625,74.7175,74.4375,75.55
149,1303019,"KURNOOL","MANTRALAYAM","Paramandoddi",77.315947,15.817848,67.21875,64.1225,65.72125,64.63375,61.1875,60.59625,58.325,50.0625,49.38,47.46
150,814016,"PRAKASAM","MUNDLAMURU","Chintalapudi1",79.787291,15.839199,80.63,76.71125,77.03375,80.0125,79.55375,79.76875,77.3625,74.75,76.4,80.0175
151,826006,"PRAKASAM","JANAKAVARAMPANGULU","Kotapadu1",80.100088,15.84409,81.38375,80.5325,79.67875,83.30375,84.715,83.1025,79.23,78.105,79.47,82.6825
152,1307016,"KURNOOL","KURNOOL","Devamada",78.106326,15.829164,70.60125,66.995,66.94625,67.955,64.22875,63.23375,63.06,54.5375,51.7075,57.68
153,813007,"PRAKASAM","DARSI","ThanamChinthala",79.652996,15.829331,80.56625,76.78625,77.21875,79.00125,79.93625,79.4425,76.81,74.72,74.825,79.26
154,823004,"PRAKASAM","CHIRALA","ChiralaRural",80.326517,15.825549,80.20625,78.745,80.39,84.14625,85.44375,84.295,77.725,77.895,80.605,83.405
155,1314006,"KURNOOL","PAMULAPADU","Bhanumukkala",78.540222,15.814239,73.12,69.90125,70.75875,70.195,67.33,68.9725,68.495,61.875,59.8,65.72
156,1390904,"KURNOOL","KALLUR","KALLUR1",78.016752,15.810387,68.79375,65.92625,65.7075,67.24625,63.94125,62.375,61.475,53.8325,50.56,54.4125
157,806013,"PRAKASAM","PEDAARAVEEDU","PedaAraveedu",79.211289,15.822061,82.31,77.07125,79.0925,79.03625,77.4325,76.05875,77.2125,73.89,74.655,75.725
158,814013,"PRAKASAM","MUNDLAMURU","NuzellaPalle",79.899771,15.834039,80.98875,78.075,77.71125,80.94875,80.9175,80.9225,78.83,75.78,77.955,80.8525
159,1315010,"KURNOOL","JUPADUBUNGALOW","Parumanchala1",78.388642,15.795062,73.315,70.1175,70.3025,70.06875,67.41,68.02625,68.305,62.3525,57.99,63.695
160,816008,"PRAKASAM","ADDANKI","Gopalapuram1",79.956213,15.844588,81.51625,80.18375,79.2675,82.5675,83.415,82.4875,80.0575,77.2375,79.2625,82.0825
161,1308010,"KURNOOL","NANDIKOTKUR","Bollavaram1",78.242523,15.829542,71.88625,68.0275,68.4075,68.62125,65.55625,64.8625,64.685,56.4025,54.0675,60.6975
162,1315009,"KURNOOL","JUPADUBUNGALOW","Lingapuram",78.389204,15.824712,73.315,70.1175,70.3025,70.06875,67.41,68.02625,68.305,62.3525,57.99,63.695
163,1321004,"KURNOOL","YEMMIGANUR","Soganur",77.513432,15.811429,67.775,64.545,65.61125,65.3725,62.5325,62.085,60.2625,53.035,51.4225,50.39
164,1322001,"KURNOOL","PEDDAKADUBUR","Peekalabetta",77.241313,15.81206,65.48875,62.12,63.2725,62.525,59.37125,57.73125,55.7325,48.04,47.235,44.865
165,806015,"PRAKASAM","PEDAARAVEEDU","Kalanuthala",79.123596,15.808957,84.10875,78.15875,79.39875,80.52,77.7825,76.225,78.325,73.045,71.465,75.8975
166,1316005,"KURNOOL","MIDTHUR","Veepanagandla",78.292936,15.816213,72.77,68.935,69.1875,69.07625,68.07125,66.3875,66.1025,59.5225,55.9425,61.84
167,1321007,"KURNOOL","YEMMIGANUR","Enigabala",77.603909,15.799426,68.01375,64.3925,65.48,66.0425,63.04875,62.2425,61.0525,55.0725,50.9475,52.145
168,1322006,"KURNOOL","PEDDAKADUBUR","Chinnatumbalam",77.316543,15.789939,67.21875,64.1225,65.72125,64.63375,61.1875,60.59625,58.325,50.0625,49.38,47.46
169,826005,"PRAKASAM","JANAKAVARAMPANGULU","Kondamur",80.065015,15.829324,81.38375,80.5325,79.67875,83.30375,84.715,83.1025,79.23,78.105,79.47,82.6825
170,807012,"PRAKASAM","DORNALA","ChinaManthanala",78.856552,15.837251,85.29625,82.11875,81.4825,81.915,78.68875,78.94875,80.8025,75.1925,72.76,76.63
171,1304019,"KURNOOL","NANDAVARAM","Mugathi",77.4744,15.800731,67.775,64.545,65.61125,65.3725,62.5325,62.085,60.2625,53.035,51.4225,50.39
172,1322008,"KURNOOL","PEDDAKADUBUR","Jalvadi",77.38744,15.80225,67.7425,64.64,65.59,65.135,62.04,61.82125,59.5175,51.2125,50.99,49.0975
173,1301023,"KURNOOL","KOWTHALAM","Bantakunta",77.129633,15.80481,63.57625,59.7575,60.735,60.4375,57.3825,55.335,53.695,45.76,45.2975,42.795
174,1322004,"KURNOOL","PEDDAKADUBUR","Hulikanvi",77.270902,15.799537,67.21875,64.1225,65.72125,64.63375,61.1875,60.59625,58.325,50.0625,49.38,47.46
175,1321008,"KURNOOL","YEMMIGANUR","Garladinne1",77.574281,15.812121,68.01375,64.3925,65.48,66.0425,63.04875,62.2425,61.0525,55.0725,50.9475,52.145
176,805014,"PRAKASAM","DONAKONDA","Bhumanapalle",79.417003,15.826267,82.3275,77.76625,77.2825,79.39125,79.50375,79.2275,77.7275,75.1575,74.4825,76.1025
177,1308012,"KURNOOL","NANDIKOTKUR","Brahmanakotkur1",78.183447,15.811172,71.88625,68.0275,68.4075,68.62125,65.55625,64.8625,64.685,56.4025,54.0675,60.6975
178,805010,"PRAKASAM","DONAKONDA","Vabbapuram",79.503078,15.829578,82.115,78.0075,77.85375,79.41,80.1375,80.41125,77.7325,76.4575,75.8925,77.1625
179,814017,"PRAKASAM","MUNDLAMURU","KellamPalle",79.722609,15.82183,80.56625,76.78625,77.21875,79.00125,79.93625,79.4425,76.81,74.72,74.825,79.26
180,806016,"PRAKASAM","PEDAARAVEEDU","Devarajugattu",79.245874,15.800912,82.31,77.07125,79.0925,79.03625,77.4325,76.05875,77.2125,73.89,74.655,75.725
181,1322002,"KURNOOL","PEDDAKADUBUR","Gavigatlu",77.218631,15.797981,65.48875,62.12,63.2725,62.525,59.37125,57.73125,55.7325,48.04,47.235,44.865
182,1303020,"KURNOOL","MANTRALAYAM","Singarajanahalli",77.341388,15.806321,67.21875,64.1225,65.72125,64.63375,61.1875,60.59625,58.325,50.0625,49.38,47.46
183,1322009,"KURNOOL","PEDDAKADUBUR","Kambadahal1",77.410904,15.800809,67.7425,64.64,65.59,65.135,62.04,61.82125,59.5175,51.2125,50.99,49.0975
184,805015,"PRAKASAM","DONAKONDA","MallamPeta",79.371786,15.815091,82.3275,77.76625,77.2825,79.39125,79.50375,79.2275,77.7275,75.1575,74.4825,76.1025
185,814011,"PRAKASAM","MUNDLAMURU","BhatlaPalle",79.931598,15.835424,80.98875,78.075,77.71125,80.94875,80.9175,80.9225,78.83,75.78,77.955,80.8525
186,1308011,"KURNOOL","NANDIKOTKUR","Damagatla",78.232955,15.81157,71.88625,68.0275,68.4075,68.62125,65.55625,64.8625,64.685,56.4025,54.0675,60.6975
187,1304018,"KURNOOL","NANDAVARAM","Dharmapuram",77.456834,15.807937,67.775,64.545,65.61125,65.3725,62.5325,62.085,60.2625,53.035,51.4225,50.39
188,1306001,"KURNOOL","GUDURKURNOOL","Julakallu",77.769425,15.807661,67.9175,64.535,65.425,65.90875,63.7675,62.27875,61.205,55.0975,51.2875,54.0725
189,813002,"PRAKASAM","DARSI","AbbayaPalem",79.596889,15.828731,81.16875,77.085,77.695,78.6725,79.9,79.84125,76.89,75.72,74.705,77.675
190,1301022,"KURNOOL","KOWTHALAM","Dommaladinne",77.089543,15.80178,63.57625,59.7575,60.735,60.4375,57.3825,55.335,53.695,45.76,45.2975,42.795
191,1321010,"KURNOOL","YEMMIGANUR","K.Thimmapuram",77.540852,15.804372,67.775,64.545,65.61125,65.3725,62.5325,62.085,60.2625,53.035,51.4225,50.39
192,813010,"PRAKASAM","DARSI","ThimmayaPalem",79.67915,15.822582,80.56625,76.78625,77.21875,79.00125,79.93625,79.4425,76.81,74.72,74.825,79.26
193,1305008,"KURNOOL","CBELAGAL","Burandoddi",77.683935,15.794377,67.85,63.885,65.2625,65.785,63.16625,61.97,60.9425,54.615,50.43,52.9825
194,809010,"PRAKASAM","ADDANKI","NarasimhaPuram",79.951586,15.832872,81.51625,80.18375,79.2675,82.5675,83.415,82.4875,80.0575,77.2375,79.2625,82.0825
195,1306005,"KURNOOL","GUDURKURNOOL","RegadiKhanapuram",77.838469,15.804165,67.9175,64.535,65.425,65.90875,63.7675,62.27875,61.205,55.0975,51.2875,54.0725
196,1314008,"KURNOOL","PAMULAPADU","Mittakandala",78.469083,15.801321,73.12,69.90125,70.75875,70.195,67.33,68.9725,68.495,61.875,59.8,65.72
197,1304006,"KURNOOL","KURNOOL","Joharapuram",78.063482,15.803339,70.60125,66.995,66.94625,67.955,64.22875,63.23375,63.06,54.5375,51.7075,57.68
198,1322005,"KURNOOL","PEDDAKADUBUR","Bapaladoddi",77.243943,15.796965,65.48875,62.12,63.2725,62.525,59.37125,57.73125,55.7325,48.04,47.235,44.865
199,814025,"PRAKASAM","MUNDLAMURU","Vempadu1",79.867283,15.808801,80.98875,78.075,77.71125,80.94875,80.9175,80.9225,78.83,75.78,77.955,80.8525
200,805013,"PRAKASAM","DONAKONDA","RagamakkaPalle",79.432998,15.812914,82.3275,77.76625,77.2825,79.39125,79.50375,79.2275,77.7275,75.1575,74.4825,76.1025
201,805012,"PRAKASAM","DONAKONDA","IndlaCheruvu",79.460912,15.810517,82.115,78.0075,77.85375,79.41,80.1375,80.41125,77.7325,76.4575,75.8925,77.1625
202,1316007,"KURNOOL","MIDTHUR","Thimmapuram1",78.349467,15.795234,72.77,68.935,69.1875,69.07625,68.07125,66.3875,66.1025,59.5225,55.9425,61.84
203,846001,"PRAKASAM","CHINAGANJAM","Santharavuru",80.253739,15.806282,80.20625,78.745,80.39,84.14625,85.44375,84.295,77.725,77.895,80.605,83.405
204,1307025,"KURNOOL","KURNOOL","Rudravaram1",78.09761,15.784768,70.60125,66.995,66.94625,67.955,64.22875,63.23375,63.06,54.5375,51.7075,57.68
205,814015,"PRAKASAM","MUNDLAMURU","NadimpallivariKhandrika",79.799176,15.82004,80.63,76.71125,77.03375,80.0125,79.55375,79.76875,77.3625,74.75,76.4,80.0175
206,1301028,"KURNOOL","KOWTHALAM","Veerladinne",77.103301,15.794828,63.57625,59.7575,60.735,60.4375,57.3825,55.335,53.695,45.76,45.2975,42.795
207,805011,"PRAKASAM","DONAKONDA","NarasimhanayuniPalem",79.487775,15.819606,82.115,78.0075,77.85375,79.41,80.1375,80.41125,77.7325,76.4575,75.8925,77.1625
208,806014,"PRAKASAM","PEDAARAVEEDU","Sunkesula1",79.17232,15.803051,82.31,77.07125,79.0925,79.03625,77.4325,76.05875,77.2125,73.89,74.655,75.725
209,1301025,"KURNOOL","KOWTHALAM","Kamavaram",77.191091,15.774858,65.48875,62.12,63.2725,62.525,59.37125,57.73125,55.7325,48.04,47.235,44.865
210,823000,"PRAKASAM","CHIRALA","ChiralaM",80.351954,15.824397,80.87125,79.3325,80.89875,84.8275,85.08875,85.55875,76.0775,77.2025,80.1875,84.065
211,826008,"PRAKASAM","JANAKAVARAMPANGULU","JanakavaramPanguluru",80.101715,15.814468,81.38375,80.5325,79.67875,83.30375,84.715,83.1025,79.23,78.105,79.47,82.6825
212,1320002,"KURNOOL","GONEGANDLA","Alwala",77.6217,15.772572,68.01375,64.3925,65.48,66.0425,63.04875,62.2425,61.0525,55.0725,50.9475,52.145
213,816012,"PRAKASAM","ADDANKI","RamayapalemU",79.939583,15.807951,80.98875,78.075,77.71125,80.94875,80.9175,80.9225,78.83,75.78,77.955,80.8525
214,805024,"PRAKASAM","DONAKONDA","Gudipadu1",79.522342,15.788161,82.115,78.0075,77.85375,79.41,80.1375,80.41125,77.7325,76.4575,75.8925,77.1625
215,1305007,"KURNOOL","CBELAGAL","Brahmanadoddi",77.736073,15.779216,67.85,63.885,65.2625,65.785,63.16625,61.97,60.9425,54.615,50.43,52.9825
216,813004,"PRAKASAM","DARSI","Chandaluru",79.582758,15.800584,81.16875,77.085,77.695,78.6725,79.9,79.84125,76.89,75.72,74.705,77.675
217,1301027,"KURNOOL","KOWTHALAM","Kowthalam1",77.131038,15.767784,63.57625,59.7575,60.735,60.4375,57.3825,55.335,53.695,45.76,45.2975,42.795
218,824005,"PRAKASAM","VETAPALEM","KothaPetaRural",80.370874,15.797395,80.87125,79.3325,80.89875,84.8275,85.08875,85.55875,76.0775,77.2025,80.1875,84.065
219,1306002,"KURNOOL","GUDURKURNOOL","Ponnakallu",77.779622,15.793659,67.9175,64.535,65.425,65.90875,63.7675,62.27875,61.205,55.0975,51.2875,54.0725
220,1321009,"KURNOOL","YEMMIGANUR","Pesaladinne",77.574315,15.795449,68.01375,64.3925,65.48,66.0425,63.04875,62.2425,61.0525,55.0725,50.9475,52.145
221,1306006,"KURNOOL","GUDURKURNOOL","Gudur1",77.799975,15.767978,67.9175,64.535,65.425,65.90875,63.7675,62.27875,61.205,55.0975,51.2875,54.0725
222,814024,"PRAKASAM","MUNDLAMURU","Mundlamuru1",79.823965,15.802009,80.63,76.71125,77.03375,80.0125,79.55375,79.76875,77.3625,74.75,76.4,80.0175
223,826014,"PRAKASAM","JANAKAVARAMPANGULU","Chandalur",80.140624,15.792521,81.38375,80.5325,79.67875,83.30375,84.715,83.1025,79.23,78.105,79.47,82.6825
224,1316006,"KURNOOL","MIDTHUR","Byrapuram",78.326767,15.797479,72.77,68.935,69.1875,69.07625,68.07125,66.3875,66.1025,59.5225,55.9425,61.84
225,805019,"PRAKASAM","DONAKONDA","Manginapudi1",79.398832,15.797482,82.3275,77.76625,77.2825,79.39125,79.50375,79.2275,77.7275,75.1575,74.4825,76.1025
226,814022,"PRAKASAM","MUNDLAMURU","Chinnavullagallu",79.748225,15.799293,80.56625,76.78625,77.21875,79.00125,79.93625,79.4425,76.81,74.72,74.825,79.26
227,1307018,"KURNOOL","KURNOOL","Gargeyapuram",78.139848,15.779834,70.60125,66.995,66.94625,67.955,64.22875,63.23375,63.06,54.5375,51.7075,57.68
228,1301026,"KURNOOL","KOWTHALAM","Echalahal",77.166606,15.786892,65.48875,62.12,63.2725,62.525,59.37125,57.73125,55.7325,48.04,47.235,44.865
229,1301029,"KURNOOL","KOWTHALAM","Bapuram",77.089358,15.783357,63.57625,59.7575,60.735,60.4375,57.3825,55.335,53.695,45.76,45.2975,42.795
230,1318002,"KURNOOL","KALLUR","A.Gokulapadu",77.945722,15.793197,67.7575,65.11375,65.28375,66.27875,63.63375,62.2375,60.9425,53.5575,50.8275,53.325
231,814021,"PRAKASAM","MUNDLAMURU","Pedavullagallu",79.769587,15.801995,80.63,76.71125,77.03375,80.0125,79.55375,79.76875,77.3625,74.75,76.4,80.0175
232,805023,"PRAKASAM","DONAKONDA","PeddannaPalem",79.49914,15.808144,82.115,78.0075,77.85375,79.41,80.1375,80.41125,77.7325,76.4575,75.8925,77.1625
233,1318001,"KURNOOL","KALLUR","Parla",77.892751,15.776523,67.7575,65.11375,65.28375,66.27875,63.63375,62.2375,60.9425,53.5575,50.8275,53.325
234,1321003,"KURNOOL","YEMMIGANUR","Kalugotla1",77.516217,15.777079,67.775,64.545,65.61125,65.3725,62.5325,62.085,60.2625,53.035,51.4225,50.39
235,1316001,"KURNOOL","MIDTHUR","Nagalooty",78.227233,15.790576,71.88625,68.0275,68.4075,68.62125,65.55625,64.8625,64.685,56.4025,54.0675,60.6975
236,825006,"PRAKASAM","INKOLLU","GangaVaram",80.163166,15.814639,80.53125,79.68,80.2675,83.51125,85.36375,83.40875,77.7675,78.5325,80.13,83.1725
237,813001,"PRAKASAM","DARSI","Bandellapaya",79.612195,15.794627,81.16875,77.085,77.695,78.6725,79.9,79.84125,76.89,75.72,74.705,77.675
238,809004,"PRAKASAM","MARKAPUR","Idupur",79.299235,15.788855,81.66875,76.79375,78.11125,79.84,78.515,77.41,76.7625,74.7175,74.4375,75.55
239,1390906,"KURNOOL","YEMMIGANUR","Yemmiganur1",77.479936,15.770975,67.775,64.545,65.61125,65.3725,62.5325,62.085,60.2625,53.035,51.4225,50.39
240,813006,"PRAKASAM","DARSI","VenkatachalamPalle",79.633918,15.810884,81.16875,77.085,77.695,78.6725,79.9,79.84125,76.89,75.72,74.705,77.675
241,808001,"PRAKASAM","ARDHAVEEDU","Velagalapaya",78.955619,15.782028,85.325,80.39125,80.32,82.07875,79.0775,77.98125,78.9025,72.1475,70.2725,76.8325
242,1316004,"KURNOOL","MIDTHUR","Midthur1",78.274525,15.772631,72.77,68.935,69.1875,69.07625,68.07125,66.3875,66.1025,59.5225,55.9425,61.84
243,826010,"PRAKASAM","JANAKAVARAMPANGULU","Kasyapuram",80.030299,15.809055,81.51625,80.18375,79.2675,82.5675,83.415,82.4875,80.0575,77.2375,79.2625,82.0825
244,814027,"PRAKASAM","MUNDLAMURU","Sankarapuram",79.902559,15.808434,80.98875,78.075,77.71125,80.94875,80.9175,80.9225,78.83,75.78,77.955,80.8525
245,1321011,"KURNOOL","YEMMIGANUR","Parlapalle",77.556217,15.774321,68.01375,64.3925,65.48,66.0425,63.04875,62.2425,61.0525,55.0725,50.9475,52.145
246,1301030,"KURNOOL","KOWTHALAM","Rowdur",77.071671,15.752732,63.57625,59.7575,60.735,60.4375,57.3825,55.335,53.695,45.76,45.2975,42.795
247,890906,"PRAKASAM","MARKAPUR","Forest4",79.209887,15.767906,82.31,77.07125,79.0925,79.03625,77.4325,76.05875,77.2125,73.89,74.655,75.725
248,895901,"PRAKASAM","ADDANKI","AddankiNorthU",79.972131,15.812522,81.51625,80.18375,79.2675,82.5675,83.415,82.4875,80.0575,77.2375,79.2625,82.0825
249,814026,"PRAKASAM","MUNDLAMURU","Polavaram1",79.875996,15.795892,80.98875,78.075,77.71125,80.94875,80.9175,80.9225,78.83,75.78,77.955,80.8525
250,814023,"PRAKASAM","MUNDLAMURU","Pasupugallu",79.790377,15.797182,80.63,76.71125,77.03375,80.0125,79.55375,79.76875,77.3625,74.75,76.4,80.0175
251,826009,"PRAKASAM","JANAKAVARAMPANGULU","Reningavaram",80.049118,15.806442,81.51625,80.18375,79.2675,82.5675,83.415,82.4875,80.0575,77.2375,79.2625,82.0825
252,1323014,"KURNOOL","ADONI","PeddaThumbalam",77.248511,15.764927,65.48875,62.12,63.2725,62.525,59.37125,57.73125,55.7325,48.04,47.235,44.865
253,1322010,"KURNOOL","PEDDAKADUBUR","HissaraMurvari",77.415921,15.764127,67.7425,64.64,65.59,65.135,62.04,61.82125,59.5175,51.2125,50.99,49.0975
254,1307021,"KURNOOL","KURNOOL","Pasupula1",78.073995,15.780922,70.60125,66.995,66.94625,67.955,64.22875,63.23375,63.06,54.5375,51.7075,57.68
255,1318005,"KURNOOL","KALLUR","Pandipadu",78.008292,15.790716,68.79375,65.92625,65.7075,67.24625,63.94125,62.375,61.475,53.8325,50.56,54.4125
256,813011,"PRAKASAM","DARSI","Darsi1",79.676677,15.775791,80.56625,76.78625,77.21875,79.00125,79.93625,79.4425,76.81,74.72,74.825,79.26
257,1307019,"KURNOOL","KURNOOL","Diguvapadu",78.180621,15.782299,71.88625,68.0275,68.4075,68.62125,65.55625,64.8625,64.685,56.4025,54.0675,60.6975
258,806012,"PRAKASAM","PEDAARAVEEDU","S.KothaPalle",79.241995,15.806835,82.31,77.07125,79.0925,79.03625,77.4325,76.05875,77.2125,73.89,74.655,75.725
259,1318006,"KURNOOL","KALLUR","Laxmipuram",77.985577,15.759232,68.79375,65.92625,65.7075,67.24625,63.94125,62.375,61.475,53.8325,50.56,54.4125
260,1318007,"KURNOOL","KALLUR","Salkapuram",77.956505,15.777061,68.79375,65.92625,65.7075,67.24625,63.94125,62.375,61.475,53.8325,50.56,54.4125
261,824001,"PRAKASAM","VETAPALEM","Vetapalem1",80.302711,15.788134,80.20625,78.745,80.39,84.14625,85.44375,84.295,77.725,77.895,80.605,83.405
262,826011,"PRAKASAM","JANAKAVARAMPANGULU","Alavalapadu1",80.064837,15.78951,81.38375,80.5325,79.67875,83.30375,84.715,83.1025,79.23,78.105,79.47,82.6825
263,814018,"PRAKASAM","MUNDLAMURU","BasavaPuram",79.71287,15.801226,80.56625,76.78625,77.21875,79.00125,79.93625,79.4425,76.81,74.72,74.825,79.26
264,814019,"PRAKASAM","MUNDLAMURU","Brundavanam",79.687545,15.79045,80.56625,76.78625,77.21875,79.00125,79.93625,79.4425,76.81,74.72,74.825,79.26
265,1322013,"KURNOOL","PEDDAKADUBUR","Muchigeri",77.300824,15.767574,67.21875,64.1225,65.72125,64.63375,61.1875,60.59625,58.325,50.0625,49.38,47.46
266,1314009,"KURNOOL","PAMULAPADU","Vempenta",78.518422,15.775165,73.12,69.90125,70.75875,70.195,67.33,68.9725,68.495,61.875,59.8,65.72
267,816015,"PRAKASAM","ADDANKI","AddankiSouthU",79.971153,15.804479,81.51625,80.18375,79.2675,82.5675,83.415,82.4875,80.0575,77.2375,79.2625,82.0825
268,825008,"PRAKASAM","INKOLLU","Bhimavaram1",80.211824,15.783483,80.53125,79.68,80.2675,83.51125,85.36375,83.40875,77.7675,78.5325,80.13,83.1725
269,1307023,"KURNOOL","KURNOOL","Dinnedevarapadu1",78.034817,15.76846,68.79375,65.92625,65.7075,67.24625,63.94125,62.375,61.475,53.8325,50.56,54.4125
270,813005,"PRAKASAM","DARSI","Chalivendra",79.633136,15.791928,81.16875,77.085,77.695,78.6725,79.9,79.84125,76.89,75.72,74.705,77.675
271,1320001,"KURNOOL","GONEGANDLA","PeddaMarriveedu",77.582034,15.75927,68.01375,64.3925,65.48,66.0425,63.04875,62.2425,61.0525,55.0725,50.9475,52.145
272,805022,"PRAKASAM","DONAKONDA","LakshmiNarayanaPuram",79.482861,15.787315,82.115,78.0075,77.85375,79.41,80.1375,80.41125,77.7325,76.4575,75.8925,77.1625
273,1315011,"KURNOOL","JUPADUBUNGALOW","Thudicherla",78.442258,15.774495,73.315,70.1175,70.3025,70.06875,67.41,68.02625,68.305,62.3525,57.99,63.695
274,1316008,"KURNOOL","MIDTHUR","Cherakucherla",78.322279,15.76949,72.77,68.935,69.1875,69.07625,68.07125,66.3875,66.1025,59.5225,55.9425,61.84
275,845017,"PRAKASAM","NAGULUPPALAPADU","Thimmasamudram",80.24576,15.780671,80.53125,79.68,80.2675,83.51125,85.36375,83.40875,77.7675,78.5325,80.13,83.1725
276,1322012,"KURNOOL","PEDDAKADUBUR","Kallukunta",77.327994,15.75885,67.21875,64.1225,65.72125,64.63375,61.1875,60.59625,58.325,50.0625,49.38,47.46
277,825007,"PRAKASAM","INKOLLU","Koniki",80.181696,15.782431,80.53125,79.68,80.2675,83.51125,85.36375,83.40875,77.7675,78.5325,80.13,83.1725
278,890907,"PRAKASAM","GIDDALURU","Forest5",78.822277,15.399135,86.15375,78.9275,78.885,79.17625,75.64875,76.90125,75.3325,71.3025,70,73.3425
279,1306008,"KURNOOL","GUDURKURNOOL","Gudipadu2",77.848846,15.759482,67.9175,64.535,65.425,65.90875,63.7675,62.27875,61.205,55.0975,51.2875,54.0725
280,1322011,"KURNOOL","PEDDAKADUBUR","PeddaKadubur1",77.356326,15.740405,68.86125,65.3275,66.06375,66.5625,62.58125,62.57875,59.355,50.2325,49.595,49.325
281,826012,"PRAKASAM","JANAKAVARAMPANGULU","ThurpuThakkellaPadu",80.084493,15.784841,81.38375,80.5325,79.67875,83.30375,84.715,83.1025,79.23,78.105,79.47,82.6825
282,1320003,"KURNOOL","GONEGANDLA","PeddaNelatur",77.667972,15.751353,67.85,63.885,65.2625,65.785,63.16625,61.97,60.9425,54.615,50.43,52.9825
283,1381001,"KURNOOL","YEMMIGANUR","YemmiganurM",77.480039,15.768969,67.775,64.545,65.61125,65.3725,62.5325,62.085,60.2625,53.035,51.4225,50.39
284,805018,"PRAKASAM","DONAKONDA","Ananthavaram1",79.36213,15.779457,82.3275,77.76625,77.2825,79.39125,79.50375,79.2275,77.7275,75.1575,74.4825,76.1025
285,814028,"PRAKASAM","MUNDLAMURU","Avisanavaripalem",79.904353,15.789974,80.98875,78.075,77.71125,80.94875,80.9175,80.9225,78.83,75.78,77.955,80.8525
286,809001,"PRAKASAM","MARKAPUR","JammanaPalle",79.199674,15.780173,82.31,77.07125,79.0925,79.03625,77.4325,76.05875,77.2125,73.89,74.655,75.725
287,1319001,"KURNOOL","KODUMUR","Pulakurthy",77.709792,15.742056,69.64375,65.57,65.8725,66.79625,63.7275,63.82125,61.8425,53.2925,51.77,54.17
288,824004,"PRAKASAM","VETAPALEM","NayaniPalliRural",80.33372,15.769634,80.20625,78.745,80.39,84.14625,85.44375,84.295,77.725,77.895,80.605,83.405
289,805020,"PRAKASAM","DONAKONDA","PochamakkaPalle",79.428151,15.785171,82.3275,77.76625,77.2825,79.39125,79.50375,79.2275,77.7275,75.1575,74.4825,76.1025
290,1316003,"KURNOOL","MIDTHUR","Kadumur",78.227641,15.763602,71.88625,68.0275,68.4075,68.62125,65.55625,64.8625,64.685,56.4025,54.0675,60.6975
291,1321001,"KURNOOL","YEMMIGANUR","Sardarpuram",77.448179,15.764589,67.7425,64.64,65.59,65.135,62.04,61.82125,59.5175,51.2125,50.99,49.0975
292,1307020,"KURNOOL","KURNOOL","Noothanapalle",78.096237,15.769526,70.60125,66.995,66.94625,67.955,64.22875,63.23375,63.06,54.5375,51.7075,57.68
293,809015,"PRAKASAM","MARKAPUR","Kolabhimunipadu",79.18284,15.763369,82.31,77.07125,79.0925,79.03625,77.4325,76.05875,77.2125,73.89,74.655,75.725
294,1307024,"KURNOOL","KURNOOL","B.Thandrapadu",78.059094,15.752542,70.60125,66.995,66.94625,67.955,64.22875,63.23375,63.06,54.5375,51.7075,57.68
295,826013,"PRAKASAM","JANAKAVARAMPANGULU","ThurpuKopperaPadu",80.103354,15.779232,81.38375,80.5325,79.67875,83.30375,84.715,83.1025,79.23,78.105,79.47,82.6825
296,814020,"PRAKASAM","MUNDLAMURU","Pulipadu",79.710334,15.784292,80.56625,76.78625,77.21875,79.00125,79.93625,79.4425,76.81,74.72,74.825,79.26
297,1322014,"KURNOOL","PEDDAKADUBUR","Nowlekal",77.280764,15.737529,68.45125,64.2175,66.3425,65.2575,61.57875,60.545,57.625,48.6875,48.235,46.7175
298,805021,"PRAKASAM","DONAKONDA","PadamatiVenkataPuram",79.457374,15.776713,82.115,78.0075,77.85375,79.41,80.1375,80.41125,77.7325,76.4575,75.8925,77.1625
299,1323888,"KURNOOL","VELGODE","Forest6",78.705013,15.724935,79.4425,76.18375,75.61375,75.87625,72.1175,71.10125,73.1025,65.8775,61.675,70.1625
300,1316002,"KURNOOL","MIDTHUR","Masapeta",78.187462,15.759089,71.88625,68.0275,68.4075,68.62125,65.55625,64.8625,64.685,56.4025,54.0675,60.6975
301,809006,"PRAKASAM","MARKAPUR","GajjalaKonda",79.397307,15.757964,82.3275,77.76625,77.2825,79.39125,79.50375,79.2275,77.7275,75.1575,74.4825,76.1025
302,1314010,"KURNOOL","PAMULAPADU","Maddur1",78.486458,15.750469,73.12,69.90125,70.75875,70.195,67.33,68.9725,68.495,61.875,59.8,65.72
303,816014,"PRAKASAM","ADDANKI","Kotikalapudi",79.94884,15.773547,80.98875,78.075,77.71125,80.94875,80.9175,80.9225,78.83,75.78,77.955,80.8525
304,827005,"PRAKASAM","KORISAPADU","Pichikalagudipadu",80.045974,15.775886,81.51625,80.18375,79.2675,82.5675,83.415,82.4875,80.0575,77.2375,79.2625,82.0825
305,809002,"PRAKASAM","MARKAPUR","NikaramPalle",79.228507,15.772791,82.31,77.07125,79.0925,79.03625,77.4325,76.05875,77.2125,73.89,74.655,75.725
306,1301034,"KURNOOL","KOWTHALAM","Yerigiri",77.196664,15.741184,65.8,61.405,62.725,62.16625,58.76375,57.13375,54.5325,46.4725,45.51,43.67
307,1322015,"KURNOOL","PEDDAKADUBUR","Myakadona",77.299608,15.737709,68.45125,64.2175,66.3425,65.2575,61.57875,60.545,57.625,48.6875,48.235,46.7175
308,1321013,"KURNOOL","YEMMIGANUR","Kadimetla",77.530778,15.735522,68.6975,65.6575,65.81625,66.715,63.14125,63.37,60.195,51.3275,49.645,51.415
309,1318008,"KURNOOL","KALLUR","K.Markapuram",77.928095,15.749917,68.2,64.62875,65.30625,66.05125,62.665,61.745,60.5975,53.2175,50.9,53.7625
310,816013,"PRAKASAM","ADDANKI","Kunkupadu1",79.92361,15.768614,80.98875,78.075,77.71125,80.94875,80.9175,80.9225,78.83,75.78,77.955,80.8525
311,813013,"PRAKASAM","DARSI","LankojanaPalle",79.651219,15.761419,80.56625,76.78625,77.21875,79.00125,79.93625,79.4425,76.81,74.72,74.825,79.26
312,815003,"PRAKASAM","THALLUR","Vithalapuram",79.864233,15.768723,80.98875,78.075,77.71125,80.94875,80.9175,80.9225,78.83,75.78,77.955,80.8525
313,813014,"PRAKASAM","DARSI","JammigumpalaK.S.Palem",79.572429,15.768662,81.16875,77.085,77.695,78.6725,79.9,79.84125,76.89,75.72,74.705,77.675
314,809009,"PRAKASAM","MARKAPUR","MarkapurRural",79.283038,15.740407,84.2725,77.12,77.84375,80.175,78.7875,78.11875,77.08,74.66,74.465,75.7775
315,815002,"PRAKASAM","THALLUR","Mannepalle",79.8368,15.757339,80.63,76.71125,77.03375,80.0125,79.55375,79.76875,77.3625,74.75,76.4,80.0175
316,813025,"PRAKASAM","DARSI","CheruvuKommaPalem",79.775275,15.770083,80.63,76.71125,77.03375,80.0125,79.55375,79.76875,77.3625,74.75,76.4,80.0175
317,1306010,"KURNOOL","GUDURKURNOOL","Kuruvanagalapuram",77.900714,15.751334,67.7575,65.11375,65.28375,66.27875,63.63375,62.2375,60.9425,53.5575,50.8275,53.325
318,813027,"PRAKASAM","DARSI","PothaKamuru",79.765239,15.727802,82.615,78.82875,77.8125,81.7,81.93375,81.595,78.6375,76.7975,77.665,81.46
319,809003,"PRAKASAM","MARKAPUR","PedaNagulavaram",79.256812,15.765567,81.66875,76.79375,78.11125,79.84,78.515,77.41,76.7625,74.7175,74.4375,75.55
320,815005,"PRAKASAM","THALLUR","Tallur",79.882653,15.741139,83.05125,80.6725,79.2575,82.8725,83.98625,82.865,80.13,77.6725,78.555,81.785
321,809005,"PRAKASAM","MARKAPUR","PedaYachavaram",79.329709,15.749087,84.2725,77.12,77.84375,80.175,78.7875,78.11875,77.08,74.66,74.465,75.7775
322,808002,"PRAKASAM","ARDHAVEEDU","Gannepalle",78.99049,15.726612,85.59125,79.5125,78.31375,81.7575,78.2975,76.92875,78.775,72.565,70.1125,75.85
323,813023,"PRAKASAM","DARSI","EastVeerayaPalem",79.727875,15.752946,80.56625,76.78625,77.21875,79.00125,79.93625,79.4425,76.81,74.72,74.825,79.26
324,815004,"PRAKASAM","THALLUR","Malkapuram",79.902345,15.758572,80.98875,78.075,77.71125,80.94875,80.9175,80.9225,78.83,75.78,77.955,80.8525
325,1321014,"KURNOOL","YEMMIGANUR","Gudikal",77.47364,15.740915,68.6975,65.6575,65.81625,66.715,63.14125,63.37,60.195,51.3275,49.645,51.415
326,813024,"PRAKASAM","DARSI","MohiddinPuram",79.750506,15.760093,80.63,76.71125,77.03375,80.0125,79.55375,79.76875,77.3625,74.75,76.4,80.0175
327,1301031,"KURNOOL","KOWTHALAM","Upparahal",77.103817,15.729906,64.01,59.165,60.5725,60.1125,56.7125,55.1525,52.7925,45.8775,44.675,42.415
328,1316010,"KURNOOL","MIDTHUR","Rollapadu",78.353398,15.741981,73.935,70.46875,70.67,70.435,67.9,67.97,67.27,61.405,58.605,64.6025
329,805028,"PRAKASAM","DONAKONDA","KalavalaPalle",79.435834,15.753614,82.3275,77.76625,77.2825,79.39125,79.50375,79.2275,77.7275,75.1575,74.4825,76.1025
330,846002,"PRAKASAM","CHINAGANJAM","Gonasapudi",80.221438,15.757652,80.53125,79.68,80.2675,83.51125,85.36375,83.40875,77.7675,78.5325,80.13,83.1725
331,1316009,"KURNOOL","MIDTHUR","Sunkesula2",78.313465,15.739169,73.2525,69.16375,69.385,69.0575,67.265,66.37,65.5425,59.2325,56.215,63.485
332,1320004,"KURNOOL","GONEGANDLA","Kulumala",77.627679,15.737612,68.96625,65.45125,65.78875,66.24125,63.1275,63.4525,60.8,51.75,50.175,52.6725
333,805026,"PRAKASAM","DONAKONDA","Vaddipadu",79.493462,15.753136,82.115,78.0075,77.85375,79.41,80.1375,80.41125,77.7325,76.4575,75.8925,77.1625
334,1317003,"KURNOOL","ORVAKAL","Kethavaram",78.160772,15.737921,72.38125,67.6125,68.40875,67.7175,65.625,65.06875,64.3025,56.215,53.565,60.7675
335,824002,"PRAKASAM","VETAPALEM","PandillaPalle",80.276372,15.75858,80.20625,78.745,80.39,84.14625,85.44375,84.295,77.725,77.895,80.605,83.405
336,1314011,"KURNOOL","PAMULAPADU","Vanala",78.443397,15.74056,73.935,70.46875,70.67,70.435,67.9,67.97,67.27,61.405,58.605,64.6025
337,1321012,"KURNOOL","YEMMIGANUR","Ralladoddi",77.565552,15.728735,68.96625,65.45125,65.78875,66.24125,63.1275,63.4525,60.8,51.75,50.175,52.6725
338,1301033,"KURNOOL","KOWTHALAM","Badinehal",77.154571,15.715901,65.8,61.405,62.725,62.16625,58.76375,57.13375,54.5325,46.4725,45.51,43.67
339,1323013,"KURNOOL","ADONI","Kuppagal",77.233874,15.731498,65.8,61.405,62.725,62.16625,58.76375,57.13375,54.5325,46.4725,45.51,43.67
340,1316011,"KURNOOL","MIDTHUR","Alaganur",78.39306,15.734915,73.935,70.46875,70.67,70.435,67.9,67.97,67.27,61.405,58.605,64.6025
341,809016,"PRAKASAM","MARKAPUR","Akkacheruvu",79.1683,15.752623,82.31,77.07125,79.0925,79.03625,77.4325,76.05875,77.2125,73.89,74.655,75.725
342,813012,"PRAKASAM","DARSI","BalaPuram",79.629504,15.753052,81.16875,77.085,77.695,78.6725,79.9,79.84125,76.89,75.72,74.705,77.675
343,815001,"PRAKASAM","THALLUR","Dosakayalapadu",79.812634,15.745222,82.615,78.82875,77.8125,81.7,81.93375,81.595,78.6375,76.7975,77.665,81.46
344,1313004,"KURNOOL","VELGODE","Gunthakandala",78.517602,15.746697,72.45875,69.8125,70.61875,70.15875,66.64,68.8375,66.9975,62.19,59.1,65.2325
345,825009,"PRAKASAM","INKOLLU","Duddukur",80.165322,15.747534,80.4275,79.4225,80.1125,84.23375,85.8575,84.50375,79.3375,79.84,80.87,83.645
346,824003,"PRAKASAM","VETAPALEM","PullariPalem",80.306569,15.74292,79.67375,78.46625,79.49,83.3075,84.94,84.6225,74.0725,77.4575,78.8725,83.98
347,1319004,"KURNOOL","KODUMUR","Pyalakurthy",77.826322,15.72533,68.9025,64.9675,65.30875,66.82875,63.37,62.95625,61.5625,54.7775,52.3225,54.3675
348,827006,"PRAKASAM","KORISAPADU","Ravinuthala1",80.085124,15.746008,81.85375,80.37625,80.84125,84.225,85.2475,83.53125,80.13,79.185,80.52,82.5275
349,1317002,"KURNOOL","ORVAKAL","Puricherla",78.130952,15.724961,70.8975,65.81,66.91875,66.24625,63.0675,63.12875,62.29,53.4675,50.465,56.655
350,1318011,"KURNOOL","KALLUR","Dupadu1",78.009823,15.739539,68.9175,64.35125,65.615,65.4425,61.92875,61.33875,60.305,52.2575,49.255,53.8125
351,1320005,"KURNOOL","GONEGANDLA","Gonegandla1",77.589488,15.714842,68.96625,65.45125,65.78875,66.24125,63.1275,63.4525,60.8,51.75,50.175,52.6725
352,1322016,"KURNOOL","PEDDAKADUBUR","ChinnaKadubur",77.31755,15.725831,68.45125,64.2175,66.3425,65.2575,61.57875,60.545,57.625,48.6875,48.235,46.7175
353,1321017,"KURNOOL","YEMMIGANUR","Banavasi1",77.404384,15.726148,68.86125,65.3275,66.06375,66.5625,62.58125,62.57875,59.355,50.2325,49.595,49.325
354,816016,"PRAKASAM","ADDANKI","ManiKeswaram",79.977506,15.753442,81.51625,80.18375,79.2675,82.5675,83.415,82.4875,80.0575,77.2375,79.2625,82.0825
355,845016,"PRAKASAM","NAGULUPPALAPADU","MaddiralaMuppalla",80.198035,15.749338,80.4275,79.4225,80.1125,84.23375,85.8575,84.50375,79.3375,79.84,80.87,83.645
356,809014,"PRAKASAM","MARKAPUR","VemulaKota",79.232845,15.742898,84.34625,76.98125,78.3575,80.4325,78.84125,77.49625,78.1325,74.6975,75.0375,76.11
357,1316015,"KURNOOL","MIDTHUR","Devanur",78.255562,15.723418,73.2525,69.16375,69.385,69.0575,67.265,66.37,65.5425,59.2325,56.215,63.485
358,1321016,"KURNOOL","YEMMIGANUR","Kandanathi",77.454596,15.700254,68.6975,65.6575,65.81625,66.715,63.14125,63.37,60.195,51.3275,49.645,51.415
359,1323043,"KURNOOL","ADONI","Basarakodu",77.257679,15.723198,68.45125,64.2175,66.3425,65.2575,61.57875,60.545,57.625,48.6875,48.235,46.7175
360,826015,"PRAKASAM","JANAKAVARAMPANGULU","NuzendlaPalle",80.132868,15.755667,81.38375,80.5325,79.67875,83.30375,84.715,83.1025,79.23,78.105,79.47,82.6825
361,813016,"PRAKASAM","DARSI","Bandiveligandla",79.572773,15.739713,82.38,77.35,78.15125,79.3725,80.565,79.7775,77.385,75.3675,75.7475,79.44
362,1306009,"KURNOOL","GUDURKURNOOL","Penchikalapadu",77.871325,15.729939,68.2,64.62875,65.30625,66.05125,62.665,61.745,60.5975,53.2175,50.9,53.7625
363,827004,"PRAKASAM","KORISAPADU","Korisapadu1",80.045241,15.748985,82.27625,80.4775,80.775,83.80625,84.5825,82.8425,80.23,77.61,79.4325,81.76
364,813017,"PRAKASAM","DARSI","YerrobanaPalle",79.608598,15.750365,81.16875,77.085,77.695,78.6725,79.9,79.84125,76.89,75.72,74.705,77.675
365,1316016,"KURNOOL","MIDTHUR","Chowtakur1",78.224322,15.716936,72.38125,67.6125,68.40875,67.7175,65.625,65.06875,64.3025,56.215,53.565,60.7675
366,846004,"PRAKASAM","CHINAGANJAM","Kadavakuduru1",80.249817,15.737458,80.4275,79.4225,80.1125,84.23375,85.8575,84.50375,79.3375,79.84,80.87,83.645
367,1316017,"KURNOOL","MIDTHUR","Bannur1",78.204854,15.734088,72.38125,67.6125,68.40875,67.7175,65.625,65.06875,64.3025,56.215,53.565,60.7675
368,1306007,"KURNOOL","GUDURKURNOOL","Chanugondla",77.770354,15.720825,68.9025,64.9675,65.30875,66.82875,63.37,62.95625,61.5625,54.7775,52.3225,54.3675
369,1317001,"KURNOOL","ORVAKAL","Nannur1",78.080202,15.714572,70.8975,65.81,66.91875,66.24625,63.0675,63.12875,62.29,53.4675,50.465,56.655
370,813015,"PRAKASAM","DARSI","BukkaPuram",79.554009,15.749785,82.38,77.35,78.15125,79.3725,80.565,79.7775,77.385,75.3675,75.7475,79.44
371,1306011,"KURNOOL","GUDURKURNOOL","Budidapadu",77.903269,15.727235,68.2,64.62875,65.30625,66.05125,62.665,61.745,60.5975,53.2175,50.9,53.7625
372,805027,"PRAKASAM","DONAKONDA","Sangapuram",79.468323,15.745562,83.48125,77.9025,78.45375,79.29625,79.94625,79.72125,76.6825,74.7375,75.26,77.2625
373,805025,"PRAKASAM","DONAKONDA","Aravallipadu",79.521797,15.74067,83.48125,77.9025,78.45375,79.29625,79.94625,79.72125,76.6825,74.7375,75.26,77.2625
374,1318009,"KURNOOL","KALLUR","Bastipadu",77.959574,15.714198,68.9175,64.35125,65.615,65.4425,61.92875,61.33875,60.305,52.2575,49.255,53.8125
375,1313005,"KURNOOL","VELGODE","Velgode1",78.580756,15.715785,74.8625,72.4925,73.11125,73.15125,71.27625,69.7625,69.3,65.165,61.695,66.4775
376,813019,"PRAKASAM","DARSI","EastVenkataPuram",79.649865,15.747668,82.38,77.35,78.15125,79.3725,80.565,79.7775,77.385,75.3675,75.7475,79.44
377,1321015,"KURNOOL","YEMMIGANUR","Kadivella",77.491856,15.687299,68.6975,65.6575,65.81625,66.715,63.14125,63.37,60.195,51.3275,49.645,51.415
378,816017,"PRAKASAM","ADDANKI","Nannurupadu",79.944426,15.747688,83.05125,80.6725,79.2575,82.8725,83.98625,82.865,80.13,77.6725,78.555,81.785
379,1301035,"KURNOOL","KOWTHALAM","Thovi",77.196772,15.708303,65.8,61.405,62.725,62.16625,58.76375,57.13375,54.5325,46.4725,45.51,43.67
380,827002,"PRAKASAM","KORISAPADU","BodduvaniPalem",80.005988,15.720876,82.27625,80.4775,80.775,83.80625,84.5825,82.8425,80.23,77.61,79.4325,81.76
381,1318010,"KURNOOL","KALLUR","PeddaTekur",77.997442,15.725101,68.9175,64.35125,65.615,65.4425,61.92875,61.33875,60.305,52.2575,49.255,53.8125
382,1318012,"KURNOOL","KALLUR","Thadakanapalle",78.032597,15.717002,68.9175,64.35125,65.615,65.4425,61.92875,61.33875,60.305,52.2575,49.255,53.8125
383,810006,"PRAKASAM","TARLAPADU","Pothalapadu",79.380852,15.732208,83.89125,77.8425,78.0075,79.48,79.41625,79.1125,76.535,73.9075,74.7925,76.1625
384,816018,"PRAKASAM","ADDANKI","Modepalle",79.919065,15.724771,83.05125,80.6725,79.2575,82.8725,83.98625,82.865,80.13,77.6725,78.555,81.785
385,813022,"PRAKASAM","DARSI","EastChoutapalem",79.69337,15.735565,81.90625,77.51,77.83,80.1975,80.79375,80.295,78.0725,75.7475,76.395,80.785
386,1323012,"KURNOOL","ADONI","Pandavagallu",77.237179,15.706783,65.8,61.405,62.725,62.16625,58.76375,57.13375,54.5325,46.4725,45.51,43.67
387,1316014,"KURNOOL","MIDTHUR","Chintalapalle",78.285951,15.712628,73.2525,69.16375,69.385,69.0575,67.265,66.37,65.5425,59.2325,56.215,63.485
388,809018,"PRAKASAM","MARKAPUR","Chintakunta1",79.201088,15.721015,84.34625,76.98125,78.3575,80.4325,78.84125,77.49625,78.1325,74.6975,75.0375,76.11
389,1320006,"KURNOOL","GONEGANDLA","HandriKhairawadi",77.65206,15.71337,69.64375,65.57,65.8725,66.79625,63.7275,63.82125,61.8425,53.2925,51.77,54.17
390,1323018,"KURNOOL","ADONI","Mantriki",77.299668,15.70451,68.45125,64.2175,66.3425,65.2575,61.57875,60.545,57.625,48.6875,48.235,46.7175
391,814029,"PRAKASAM","MUNDLAMURU","SinganaPalem",79.803564,15.740276,82.615,78.82875,77.8125,81.7,81.93375,81.595,78.6375,76.7975,77.665,81.46
392,890908,"PRAKASAM","MARKAPUR","MarkapurM",79.269042,15.736484,84.2725,77.12,77.84375,80.175,78.7875,78.11875,77.08,74.66,74.465,75.7775
393,813020,"PRAKASAM","DARSI","RamachandraPuram",79.650317,15.728237,81.90625,77.51,77.83,80.1975,80.79375,80.295,78.0725,75.7475,76.395,80.785
394,1321018,"KURNOOL","YEMMIGANUR","Malakapuram",77.367215,15.707214,68.86125,65.3275,66.06375,66.5625,62.58125,62.57875,59.355,50.2325,49.595,49.325
395,1313003,"KURNOOL","VELGODE","Abdullapuram",78.523312,15.72026,72.45875,69.8125,70.61875,70.15875,66.64,68.8375,66.9975,62.19,59.1,65.2325
396,1323011,"KURNOOL","ADONI","Ganekal1",77.222452,15.692952,65.8,61.405,62.725,62.16625,58.76375,57.13375,54.5325,46.4725,45.51,43.67
397,827001,"PRAKASAM","KORISAPADU","Anamanamur",79.975727,15.738734,82.27625,80.4775,80.775,83.80625,84.5825,82.8425,80.23,77.61,79.4325,81.76
398,1323019,"KURNOOL","ADONI","Dayyalaguddam",77.328651,15.707006,68.45125,64.2175,66.3425,65.2575,61.57875,60.545,57.625,48.6875,48.235,46.7175
399,1313001,"KURNOOL","VELGODE","Regadigudur",78.467954,15.714829,72.45875,69.8125,70.61875,70.15875,66.64,68.8375,66.9975,62.19,59.1,65.2325
400,1301032,"KURNOOL","KOWTHALAM","Kuntanahal",77.10921,15.698455,64.01,59.165,60.5725,60.1125,56.7125,55.1525,52.7925,45.8775,44.675,42.415
401,811001,"PRAKASAM","KONAKANAMITLA","GanivaniPadu",79.454072,15.733522,83.48125,77.9025,78.45375,79.29625,79.94625,79.72125,76.6825,74.7375,75.26,77.2625
402,827008,"PRAKASAM","KORISAPADU","PamidiPadu",80.108592,15.714714,81.85375,80.37625,80.84125,84.225,85.2475,83.53125,80.13,79.185,80.52,82.5275
403,809017,"PRAKASAM","MARKAPUR","Gottipadia",79.147258,15.718782,84.2225,77.4675,77.44125,80.5925,78.3025,76.44625,78.3575,72.625,71.88,75.255
404,1319002,"KURNOOL","KODUMUR","Varkur",77.732588,15.701651,69.64375,65.57,65.8725,66.79625,63.7275,63.82125,61.8425,53.2925,51.77,54.17
405,813026,"PRAKASAM","DARSI","SeethaSagaram",79.79044,15.738902,82.615,78.82875,77.8125,81.7,81.93375,81.595,78.6375,76.7975,77.665,81.46
406,1318016,"KURNOOL","KALLUR","Pusulur",77.925021,15.697388,68.2,64.62875,65.30625,66.05125,62.665,61.745,60.5975,53.2175,50.9,53.7625
407,890909,"PRAKASAM","MARKAPUR","Forest7",79.153788,15.712204,84.34625,76.98125,78.3575,80.4325,78.84125,77.49625,78.1325,74.6975,75.0375,76.11
408,813018,"PRAKASAM","DARSI","GaneswaraPuram",79.624676,15.737215,82.38,77.35,78.15125,79.3725,80.565,79.7775,77.385,75.3675,75.7475,79.44
409,1323016,"KURNOOL","ADONI","Jalibenchi",77.261685,15.692707,68.45125,64.2175,66.3425,65.2575,61.57875,60.545,57.625,48.6875,48.235,46.7175
410,811002,"PRAKASAM","KONAKANAMITLA","Vagemadugu",79.472222,15.722547,83.48125,77.9025,78.45375,79.29625,79.94625,79.72125,76.6825,74.7375,75.26,77.2625
411,1320013,"KURNOOL","GONEGANDLA","Iranbanda",77.591778,15.68988,68.96625,65.45125,65.78875,66.24125,63.1275,63.4525,60.8,51.75,50.175,52.6725
412,1332004,"KURNOOL","GADIVEMULA","Korrapolur",78.419128,15.709596,73.935,70.46875,70.67,70.435,67.9,67.97,67.27,61.405,58.605,64.6025
413,846005,"PRAKASAM","CHINAGANJAM","MotuPalle",80.280364,15.715598,79.67375,78.46625,79.49,83.3075,84.94,84.6225,74.0725,77.4575,78.8725,83.98
414,815006,"PRAKASAM","THALLUR","Madhavaram1",79.849315,15.728327,82.615,78.82875,77.8125,81.7,81.93375,81.595,78.6375,76.7975,77.665,81.46
415,1317004,"KURNOOL","ORVAKAL","Kannamadakala",78.185255,15.706607,72.38125,67.6125,68.40875,67.7175,65.625,65.06875,64.3025,56.215,53.565,60.7675
416,1321019,"KURNOOL","YEMMIGANUR","Kotekal",77.391337,15.687185,68.86125,65.3275,66.06375,66.5625,62.58125,62.57875,59.355,50.2325,49.595,49.325
417,812001,"PRAKASAM","PODILI","Egalapadu",79.595794,15.717919,82.38,77.35,78.15125,79.3725,80.565,79.7775,77.385,75.3675,75.7475,79.44
418,840017,"PRAKASAM","CHINAGANJAM","ChinthagumPalle",80.221264,15.734637,80.4275,79.4225,80.1125,84.23375,85.8575,84.50375,79.3375,79.84,80.87,83.645
419,1323017,"KURNOOL","ADONI","Doddanakeri",77.281173,15.690385,68.45125,64.2175,66.3425,65.2575,61.57875,60.545,57.625,48.6875,48.235,46.7175
420,1320007,"KURNOOL","GONEGANDLA","Vemugodu",77.684431,15.69949,69.64375,65.57,65.8725,66.79625,63.7275,63.82125,61.8425,53.2925,51.77,54.17
421,816019,"PRAKASAM","ADDANKI","DhenuvaKonda",79.943068,15.713189,83.05125,80.6725,79.2575,82.8725,83.98625,82.865,80.13,77.6725,78.555,81.785
422,812002,"PRAKASAM","PODILI","KesavabhotlaPalem",79.609947,15.713718,82.38,77.35,78.15125,79.3725,80.565,79.7775,77.385,75.3675,75.7475,79.44
423,1319005,"KURNOOL","KODUMUR","Amadaguntla",77.858915,15.702789,68.2,64.62875,65.30625,66.05125,62.665,61.745,60.5975,53.2175,50.9,53.7625
424,815009,"PRAKASAM","THALLUR","Sarvamitta",79.796656,15.725692,82.615,78.82875,77.8125,81.7,81.93375,81.595,78.6375,76.7975,77.665,81.46
425,1318013,"KURNOOL","KALLUR","ChinnaTekur",77.996431,15.697776,68.9175,64.35125,65.615,65.4425,61.92875,61.33875,60.305,52.2575,49.255,53.8125
426,1313009,"KURNOOL","VELGODE","Pangidigudem1",78.68257,15.721112,79.4425,76.18375,75.61375,75.87625,72.1175,71.10125,73.1025,65.8775,61.675,70.1625
427,813028,"PRAKASAM","DARSI","Samanthapudi",79.714266,15.706472,81.90625,77.51,77.83,80.1975,80.79375,80.295,78.0725,75.7475,76.395,80.785
428,1319006,"KURNOOL","KODUMUR","Anugonda",77.894674,15.691496,68.2,64.62875,65.30625,66.05125,62.665,61.745,60.5975,53.2175,50.9,53.7625
429,1316012,"KURNOOL","MIDTHUR","Talamudipi",78.363831,15.69388,73.935,70.46875,70.67,70.435,67.9,67.97,67.27,61.405,58.605,64.6025
430,845015,"PRAKASAM","NAGULUPPALAPADU","Edumudi",80.183217,15.72378,80.4275,79.4225,80.1125,84.23375,85.8575,84.50375,79.3375,79.84,80.87,83.645
431,827010,"PRAKASAM","KORISAPADU","Rachapudi",80.14747,15.718294,81.85375,80.37625,80.84125,84.225,85.2475,83.53125,80.13,79.185,80.52,82.5275
432,1320014,"KURNOOL","GONEGANDLA","Ganjihalli",77.534197,15.686726,68.6975,65.6575,65.81625,66.715,63.14125,63.37,60.195,51.3275,49.645,51.415
433,1318015,"KURNOOL","KALLUR","Bellavaram",77.944483,15.696238,68.2,64.62875,65.30625,66.05125,62.665,61.745,60.5975,53.2175,50.9,53.7625
434,805030,"PRAKASAM","DONAKONDA","WestKambhampadu",79.53785,15.722612,83.48125,77.9025,78.45375,79.29625,79.94625,79.72125,76.6825,74.7375,75.26,77.2625
435,1313002,"KURNOOL","VELGODE","Velpanur",78.497024,15.693157,72.45875,69.8125,70.61875,70.15875,66.64,68.8375,66.9975,62.19,59.1,65.2325
436,809007,"PRAKASAM","MARKAPUR","Rayavaram1",79.315522,15.710927,84.2725,77.12,77.84375,80.175,78.7875,78.11875,77.08,74.66,74.465,75.7775
437,1316013,"KURNOOL","MIDTHUR","Jalakanur",78.314903,15.696628,73.2525,69.16375,69.385,69.0575,67.265,66.37,65.5425,59.2325,56.215,63.485
438,827007,"PRAKASAM","KORISAPADU","DyvalaRavuru",80.060969,15.708799,81.85375,80.37625,80.84125,84.225,85.2475,83.53125,80.13,79.185,80.52,82.5275
439,827003,"PRAKASAM","KORISAPADU","Somavarappadu",80.03593,15.722375,82.27625,80.4775,80.775,83.80625,84.5825,82.8425,80.23,77.61,79.4325,81.76
440,810005,"PRAKASAM","TARLAPADU","Ganugapenta",79.353529,15.702583,83.89125,77.8425,78.0075,79.48,79.41625,79.1125,76.535,73.9075,74.7925,76.1625
441,809013,"PRAKASAM","MARKAPUR","SivaramPuram",79.235102,15.721218,84.34625,76.98125,78.3575,80.4325,78.84125,77.49625,78.1325,74.6975,75.0375,76.11
442,810007,"PRAKASAM","TARLAPADU","KandallaPalle",79.387143,15.715023,83.89125,77.8425,78.0075,79.48,79.41625,79.1125,76.535,73.9075,74.7925,76.1625
443,812003,"PRAKASAM","PODILI","Pamulapadu2",79.623509,15.700745,82.38,77.35,78.15125,79.3725,80.565,79.7775,77.385,75.3675,75.7475,79.44
444,846006,"PRAKASAM","CHINAGANJAM","Chinaganjam1",80.23204,15.695422,80.4275,79.4225,80.1125,84.23375,85.8575,84.50375,79.3375,79.84,80.87,83.645
445,1319003,"KURNOOL","KODUMUR","Kodumur1",77.790791,15.686164,68.9025,64.9675,65.30875,66.82875,63.37,62.95625,61.5625,54.7775,52.3225,54.3675
446,1323001,"KURNOOL","ADONI","Hanavalu",77.149088,15.678004,64.01,59.165,60.5725,60.1125,56.7125,55.1525,52.7925,45.8775,44.675,42.415
447,890910,"PRAKASAM","MARKAPUR","Forest8",79.178304,15.707902,84.34625,76.98125,78.3575,80.4325,78.84125,77.49625,78.1325,74.6975,75.0375,76.11
448,805029,"PRAKASAM","DONAKONDA","TellaPadu",79.517588,15.719288,83.48125,77.9025,78.45375,79.29625,79.94625,79.72125,76.6825,74.7375,75.26,77.2625
449,811006,"PRAKASAM","KONAKANAMITLA","Veligandla1",79.569137,15.706574,82.38,77.35,78.15125,79.3725,80.565,79.7775,77.385,75.3675,75.7475,79.44
450,1317011,"KURNOOL","ORVAKAL","Orvakal1",78.167512,15.686324,72.38125,67.6125,68.40875,67.7175,65.625,65.06875,64.3025,56.215,53.565,60.7675
451,1322018,"KURNOOL","PEDDAKADUBUR","Tarapuram",77.313956,15.688372,68.45125,64.2175,66.3425,65.2575,61.57875,60.545,57.625,48.6875,48.235,46.7175
452,815008,"PRAKASAM","THALLUR","BellamkondavariPalem",79.808811,15.71098,82.615,78.82875,77.8125,81.7,81.93375,81.595,78.6375,76.7975,77.665,81.46
453,808010,"PRAKASAM","ARDHAVEEDU","BolluPalle",78.921467,15.703873,87.205,81.795,81.185,83.255,78.7875,78.4925,81.635,73.3,70.4975,76.74
454,815014,"PRAKASAM","THALLUR","NagambhotlaPalem",79.822587,15.682161,82.615,78.82875,77.8125,81.7,81.93375,81.595,78.6375,76.7975,77.665,81.46
455,809019,"PRAKASAM","MARKAPUR","Badekhanpeta",79.193837,15.713187,84.34625,76.98125,78.3575,80.4325,78.84125,77.49625,78.1325,74.6975,75.0375,76.11
456,809020,"PRAKASAM","MARKAPUR","ThippayaPalem",79.164054,15.692319,84.34625,76.98125,78.3575,80.4325,78.84125,77.49625,78.1325,74.6975,75.0375,76.11
457,808003,"PRAKASAM","ARDHAVEEDU","Magutur",79.076353,15.70457,84.2225,77.4675,77.44125,80.5925,78.3025,76.44625,78.3575,72.625,71.88,75.255
458,1323021,"KURNOOL","ADONI","Pesalabanda",77.299679,15.673151,68.45125,64.2175,66.3425,65.2575,61.57875,60.545,57.625,48.6875,48.235,46.7175
459,1320011,"KURNOOL","GONEGANDLA","Errabadu",77.654414,15.673194,69.64375,65.57,65.8725,66.79625,63.7275,63.82125,61.8425,53.2925,51.77,54.17
460,1322017,"KURNOOL","PEDDAKADUBUR","Rangapuram1",77.334837,15.687069,68.45125,64.2175,66.3425,65.2575,61.57875,60.545,57.625,48.6875,48.235,46.7175
461,1320012,"KURNOOL","GONEGANDLA","Neruduppala",77.612927,15.674115,68.96625,65.45125,65.78875,66.24125,63.1275,63.4525,60.8,51.75,50.175,52.6725
462,1319008,"KURNOOL","KODUMUR","Yerradoddi",77.859694,15.677909,68.2,64.62875,65.30625,66.05125,62.665,61.745,60.5975,53.2175,50.9,53.7625
463,811010,"PRAKASAM","KONAKANAMITLA","Ambapuram1",79.447471,15.705402,83.89125,77.8425,78.0075,79.48,79.41625,79.1125,76.535,73.9075,74.7925,76.1625
464,813021,"PRAKASAM","DARSI","RajamPalle",79.6668,15.712236,81.90625,77.51,77.83,80.1975,80.79375,80.295,78.0725,75.7475,76.395,80.785
465,1323010,"KURNOOL","ADONI","G.Hosalli",77.195235,15.682139,65.8,61.405,62.725,62.16625,58.76375,57.13375,54.5325,46.4725,45.51,43.67
466,815010,"PRAKASAM","THALLUR","Lakkavaram",79.78503,15.701108,82.615,78.82875,77.8125,81.7,81.93375,81.595,78.6375,76.7975,77.665,81.46
467,809012,"PRAKASAM","MARKAPUR","YellaPuram",79.245532,15.711349,84.34625,76.98125,78.3575,80.4325,78.84125,77.49625,78.1325,74.6975,75.0375,76.11
468,811011,"PRAKASAM","KONAKANAMITLA","RegumaniPalle",79.416099,15.699093,83.89125,77.8425,78.0075,79.48,79.41625,79.1125,76.535,73.9075,74.7925,76.1625
469,816009,"PRAKASAM","MARKAPUR","NarasimhaPuram1",79.25711,15.703682,84.2725,77.12,77.84375,80.175,78.7875,78.11875,77.08,74.66,74.465,75.7775
470,815016,"PRAKASAM","THALLUR","Sivarampuram",79.867414,15.693259,83.05125,80.6725,79.2575,82.8725,83.98625,82.865,80.13,77.6725,78.555,81.785
471,809008,"PRAKASAM","MARKAPUR","Goguladinne",79.281956,15.699386,84.2725,77.12,77.84375,80.175,78.7875,78.11875,77.08,74.66,74.465,75.7775
472,815015,"PRAKASAM","THALLUR","Somavrappadu",79.843885,15.706877,82.615,78.82875,77.8125,81.7,81.93375,81.595,78.6375,76.7975,77.665,81.46
473,811005,"PRAKASAM","KONAKANAMITLA","Munagapadu",79.537701,15.69137,83.48125,77.9025,78.45375,79.29625,79.94625,79.72125,76.6825,74.7375,75.26,77.2625
474,845014,"PRAKASAM","NAGULUPPALAPADU","Mattigunta",80.174275,15.702316,80.4275,79.4225,80.1125,84.23375,85.8575,84.50375,79.3375,79.84,80.87,83.645
475,1321020,"KURNOOL","YEMMIGANUR","Devibetta",77.416254,15.672843,68.86125,65.3275,66.06375,66.5625,62.58125,62.57875,59.355,50.2325,49.595,49.325
476,813030,"PRAKASAM","DARSI","Jamukuladinne",79.691988,15.706693,81.90625,77.51,77.83,80.1975,80.79375,80.295,78.0725,75.7475,76.395,80.785
477,1332005,"KURNOOL","GADIVEMULA","BilakalaGudur",78.446211,15.68911,73.935,70.46875,70.67,70.435,67.9,67.97,67.27,61.405,58.605,64.6025
478,1313010,"KURNOOL","VELGODE","Abbirajukunta",78.656321,15.700181,79.4425,76.18375,75.61375,75.87625,72.1175,71.10125,73.1025,65.8775,61.675,70.1625
479,1317006,"KURNOOL","ORVAKAL","Sakunala",78.243734,15.675713,72.38125,67.6125,68.40875,67.7175,65.625,65.06875,64.3025,56.215,53.565,60.7675
480,808009,"PRAKASAM","ARDHAVEEDU","Ardhaveedu1",78.961164,15.674667,85.59125,79.5125,78.31375,81.7575,78.2975,76.92875,78.775,72.565,70.1125,75.85
481,1317013,"KURNOOL","ORVAKAL","Loddipalle",78.085028,15.681727,70.8975,65.81,66.91875,66.24625,63.0675,63.12875,62.29,53.4675,50.465,56.655
482,1313007,"KURNOOL","VELGODE","Boyarevula",78.560733,15.688076,74.8625,72.4925,73.11125,73.15125,71.27625,69.7625,69.3,65.165,61.695,66.4775
483,828002,"PRAKASAM","MADDIPADU","Gadiyapudi",79.970386,15.692754,82.27625,80.4775,80.775,83.80625,84.5825,82.8425,80.23,77.61,79.4325,81.76
484,1318017,"KURNOOL","KALLUR","Remadur",77.913564,15.677367,68.2,64.62875,65.30625,66.05125,62.665,61.745,60.5975,53.2175,50.9,53.7625
485,1323029,"KURNOOL","ADONI","Isvi",77.237055,15.652683,65.8,61.405,62.725,62.16625,58.76375,57.13375,54.5325,46.4725,45.51,43.67
486,810001,"PRAKASAM","TARLAPADU","GorugunthalaPadu",79.219956,15.688996,84.34625,76.98125,78.3575,80.4325,78.84125,77.49625,78.1325,74.6975,75.0375,76.11
487,811004,"PRAKASAM","KONAKANAMITLA","BasavaPuram1",79.509359,15.69515,83.48125,77.9025,78.45375,79.29625,79.94625,79.72125,76.6825,74.7375,75.26,77.2625
488,809011,"PRAKASAM","MARKAPUR","Krishnapuram2",79.244194,15.703103,84.34625,76.98125,78.3575,80.4325,78.84125,77.49625,78.1325,74.6975,75.0375,76.11
489,1333017,"KURNOOL","ADONI","Forest9",77.2729,15.657421,68.45125,64.2175,66.3425,65.2575,61.57875,60.545,57.625,48.6875,48.235,46.7175
490,1317014,"KURNOOL","ORVAKAL","Bodduvanipalle",78.028847,15.672598,68.9175,64.35125,65.615,65.4425,61.92875,61.33875,60.305,52.2575,49.255,53.8125
491,1320008,"KURNOOL","GONEGANDLA","Thippanur",77.698735,15.669821,69.64375,65.57,65.8725,66.79625,63.7275,63.82125,61.8425,53.2925,51.77,54.17
492,811003,"PRAKASAM","KONAKANAMITLA","Mummayapalem",79.49535,15.70212,83.48125,77.9025,78.45375,79.29625,79.94625,79.72125,76.6825,74.7375,75.26,77.2625
493,1332001,"KURNOOL","GADIVEMULA","Gani1",78.296521,15.65912,73.2525,69.16375,69.385,69.0575,67.265,66.37,65.5425,59.2325,56.215,63.485
494,811016,"PRAKASAM","KONAKANAMITLA","BodaPadu",79.480022,15.701707,83.48125,77.9025,78.45375,79.29625,79.94625,79.72125,76.6825,74.7375,75.26,77.2625
495,1320009,"KURNOOL","GONEGANDLA","Lingamdinne",77.736147,15.67452,69.64375,65.57,65.8725,66.79625,63.7275,63.82125,61.8425,53.2925,51.77,54.17
496,1332003,"KURNOOL","GADIVEMULA","Gadivemula1",78.406995,15.675224,73.935,70.46875,70.67,70.435,67.9,67.97,67.27,61.405,58.605,64.6025
497,811012,"PRAKASAM","KONAKANAMITLA","GurralaMadugu",79.399758,15.685152,83.89125,77.8425,78.0075,79.48,79.41625,79.1125,76.535,73.9075,74.7925,76.1625
498,1323009,"KURNOOL","ADONI","Kadithota",77.219965,15.670375,65.8,61.405,62.725,62.16625,58.76375,57.13375,54.5325,46.4725,45.51,43.67
499,813031,"PRAKASAM","DARSI","AnnaVaram",79.657544,15.695894,81.90625,77.51,77.83,80.1975,80.79375,80.295,78.0725,75.7475,76.395,80.785
500,828001,"PRAKASAM","MADDIPADU","Garlapadu",79.952269,15.695403,82.27625,80.4775,80.775,83.80625,84.5825,82.8425,80.23,77.61,79.4325,81.76
501,845001,"PRAKASAM","NAGULUPPALAPADU","Kothakota2",80.042189,15.688301,82.27625,80.4775,80.775,83.80625,84.5825,82.8425,80.23,77.61,79.4325,81.76
502,809021,"PRAKASAM","MARKAPUR","MalyavanthuniPadu",79.193315,15.686121,84.34625,76.98125,78.3575,80.4325,78.84125,77.49625,78.1325,74.6975,75.0375,76.11
503,1323020,"KURNOOL","ADONI","Sulthanapuram",77.299519,15.674961,68.45125,64.2175,66.3425,65.2575,61.57875,60.545,57.625,48.6875,48.235,46.7175
504,1317005,"KURNOOL","ORVAKAL","Thippayapalle",78.214051,15.665477,72.38125,67.6125,68.40875,67.7175,65.625,65.06875,64.3025,56.215,53.565,60.7675
505,1323022,"KURNOOL","ADONI","Kapati",77.336861,15.664361,68.45125,64.2175,66.3425,65.2575,61.57875,60.545,57.625,48.6875,48.235,46.7175
506,1318018,"KURNOOL","KALLUR","Nayakallu",77.937411,15.6619,68.2,64.62875,65.30625,66.05125,62.665,61.745,60.5975,53.2175,50.9,53.7625
507,813003,"PRAKASAM","DARSI","Thummedalapadu",79.687295,15.697024,81.90625,77.51,77.83,80.1975,80.79375,80.295,78.0725,75.7475,76.395,80.785
508,1318014,"KURNOOL","KALLUR","ChetlaMallapuram",77.970963,15.670249,68.9175,64.35125,65.615,65.4425,61.92875,61.33875,60.305,52.2575,49.255,53.8125
509,808011,"PRAKASAM","ARDHAVEEDU","PapineniPalle",78.92235,15.670212,87.205,81.795,81.185,83.255,78.7875,78.4925,81.635,73.3,70.4975,76.74
510,815007,"PRAKASAM","THALLUR","Ramabhadrapuram1",79.838284,15.702761,82.615,78.82875,77.8125,81.7,81.93375,81.595,78.6375,76.7975,77.665,81.46
511,1332002,"KURNOOL","GADIVEMULA","Manchalakatta",78.340512,15.682429,73.2525,69.16375,69.385,69.0575,67.265,66.37,65.5425,59.2325,56.215,63.485
512,1323008,"KURNOOL","ADONI","Madire1",77.19892,15.639427,67.7725,62.5175,63.76375,63.67625,60.3925,57.77875,56.09,48.245,47.0225,45.37
513,810008,"PRAKASAM","TARLAPADU","Ragasamudram",79.383167,15.680131,83.89125,77.8425,78.0075,79.48,79.41625,79.1125,76.535,73.9075,74.7925,76.1625
514,1317012,"KURNOOL","ORVAKAL","Meedivemula",78.104674,15.663877,70.8975,65.81,66.91875,66.24625,63.0675,63.12875,62.29,53.4675,50.465,56.655
515,811008,"PRAKASAM","KONAKANAMITLA","ChintaGunta",79.489971,15.676355,83.48125,77.9025,78.45375,79.29625,79.94625,79.72125,76.6825,74.7375,75.26,77.2625
516,829001,"PRAKASAM","CHIMAKURTHI","Ilapavuluru",79.905548,15.681747,83.05125,80.6725,79.2575,82.8725,83.98625,82.865,80.13,77.6725,78.555,81.785
517,813029,"PRAKASAM","DARSI","AkkamambaPuram",79.683757,15.687737,81.90625,77.51,77.83,80.1975,80.79375,80.295,78.0725,75.7475,76.395,80.785
518,810002,"PRAKASAM","TARLAPADU","Seetanagulavaram",79.2442,15.684911,84.34625,76.98125,78.3575,80.4325,78.84125,77.49625,78.1325,74.6975,75.0375,76.11
519,828003,"PRAKASAM","MADDIPADU","Annangi",79.995573,15.679823,82.27625,80.4775,80.775,83.80625,84.5825,82.8425,80.23,77.61,79.4325,81.76
520,1318021,"KURNOOL","KALLUR","Yaparlapadu",78.003108,15.638788,70.72875,65.7175,66.4375,66.29625,63.4025,62.6275,61.96,52.5975,49.6575,56.235
521,810004,"PRAKASAM","TARLAPADU","Kethagudipi",79.305628,15.679533,84.2725,77.12,77.84375,80.175,78.7875,78.11875,77.08,74.66,74.465,75.7775
522,808005,"PRAKASAM","ARDHAVEEDU","Kakarla",79.109407,15.638513,84.17625,76.60375,76.61625,79.235,77.5775,75.96125,75.385,71.6575,71.175,74.17
523,845012,"PRAKASAM","NAGULUPPALAPADU","Kandlagunta",80.138966,15.69016,81.85375,80.37625,80.84125,84.225,85.2475,83.53125,80.13,79.185,80.52,82.5275
524,811009,"PRAKASAM","KONAKANAMITLA","BuradaPalem",79.473303,15.68834,83.48125,77.9025,78.45375,79.29625,79.94625,79.72125,76.6825,74.7375,75.26,77.2625
525,890932,"PRAKASAM","ARDHAVEEDU","Forest10",79.121891,15.672338,84.2225,77.4675,77.44125,80.5925,78.3025,76.44625,78.3575,72.625,71.88,75.255
526,812004,"PRAKASAM","PODILI","Kunchepalle",79.636753,15.678695,82.38,77.35,78.15125,79.3725,80.565,79.7775,77.385,75.3675,75.7475,79.44
527,1319010,"KURNOOL","KODUMUR","Mudumalagurthy",77.778093,15.65609,68.9025,64.9675,65.30875,66.82875,63.37,62.95625,61.5625,54.7775,52.3225,54.3675
528,1323002,"KURNOOL","ADONI","Santhekudlur",77.151606,15.641116,67.7725,62.5175,63.76375,63.67625,60.3925,57.77875,56.09,48.245,47.0225,45.37
529,1327002,"KURNOOL","DEVANAKONDA","Ternekal",77.539553,15.634728,69.27875,66.98125,67.08875,68.57125,64.43375,62.70625,60.4775,52.97,50.48,53.71
530,811017,"PRAKASAM","KONAKANAMITLA","AswarayuniPalem",79.46023,15.678304,83.48125,77.9025,78.45375,79.29625,79.94625,79.72125,76.6825,74.7375,75.26,77.2625
531,810003,"PRAKASAM","TARLAPADU","Surepalle",79.264829,15.676971,84.2725,77.12,77.84375,80.175,78.7875,78.11875,77.08,74.66,74.465,75.7775
532,811015,"PRAKASAM","KONAKANAMITLA","VaddiMadugu",79.438666,15.680651,83.89125,77.8425,78.0075,79.48,79.41625,79.1125,76.535,73.9075,74.7925,76.1625
533,1323023,"KURNOOL","ADONI","Arekal",77.370887,15.653665,68.86125,65.3275,66.06375,66.5625,62.58125,62.57875,59.355,50.2325,49.595,49.325
534,815012,"PRAKASAM","THALLUR","BoddikuraPadu",79.763287,15.660578,82.615,78.82875,77.8125,81.7,81.93375,81.595,78.6375,76.7975,77.665,81.46
535,1327003,"KURNOOL","DEVANAKONDA","Palakurthy",77.586714,15.638065,71.3525,68.0175,68.13,69.675,66.06375,64.3675,62.5925,54.93,52.7575,56.94
536,1313008,"KURNOOL","VELGODE","Mothukur",78.551479,15.667345,74.8625,72.4925,73.11125,73.15125,71.27625,69.7625,69.3,65.165,61.695,66.4775
537,1319009,"KURNOOL","KODUMUR","Gorantla1",77.823511,15.622973,72.6025,68.18375,67.68875,69.03,66.57375,65.54,65.195,58.5275,54.23,59.71
538,1390907,"KURNOOL","ADONI","Adoni1",77.284719,15.636999,67.8775,64.035,65.00625,64.82,61.26625,59.1775,57.05,48.26,47.435,47.51
539,1317010,"KURNOOL","ORVAKAL","Guttapadu",78.162153,15.661755,72.38125,67.6125,68.40875,67.7175,65.625,65.06875,64.3025,56.215,53.565,60.7675
540,808004,"PRAKASAM","ARDHAVEEDU","PottiBasavaiPalle",79.086982,15.674864,84.2225,77.4675,77.44125,80.5925,78.3025,76.44625,78.3575,72.625,71.88,75.255
541,890911,"PRAKASAM","MARKAPUR","Forest11",79.14882,15.666537,84.2225,77.4675,77.44125,80.5925,78.3025,76.44625,78.3575,72.625,71.88,75.255
542,812009,"PRAKASAM","PODILI","Sudanagunta",79.583446,15.672747,82.38,77.35,78.15125,79.3725,80.565,79.7775,77.385,75.3675,75.7475,79.44
543,845002,"PRAKASAM","NAGULUPPALAPADU","Nidamanur",80.073049,15.661414,81.85375,80.37625,80.84125,84.225,85.2475,83.53125,80.13,79.185,80.52,82.5275
544,845013,"PRAKASAM","NAGULUPPALAPADU","Uppugundur",80.162919,15.670812,80.4275,79.4225,80.1125,84.23375,85.8575,84.50375,79.3375,79.84,80.87,83.645
545,846007,"PRAKASAM","CHINAGANJAM","Pedaganjam",80.215006,15.649487,80.4725,79.19875,79.74875,84.30125,86.18625,85.1025,78.0925,78.8625,80.6575,84.48
546,1326002,"KURNOOL","ASPARI","Mulugundam",77.436449,15.635345,68.18,65.51875,65.56625,66.40625,62.34625,60.84875,58.4425,49.725,48.395,50.3825
547,1320015,"KURNOOL","GONEGANDLA","Byluppala",77.498208,15.645299,69.27875,66.98125,67.08875,68.57125,64.43375,62.70625,60.4775,52.97,50.48,53.71
548,1323003,"KURNOOL","ADONI","PeddaHarivanam",77.078723,15.617226,66.93,60.6125,62.1725,61.99,58.77,56.245,54.4925,47.945,46.1975,43.7425
549,815011,"PRAKASAM","THALLUR","Sankaranarayanapuram",79.73079,15.679376,81.90625,77.51,77.83,80.1975,80.79375,80.295,78.0725,75.7475,76.395,80.785
550,1328001,"KURNOOL","KRISHNAGIRI","Mannegunta",77.80878,15.627702,72.6025,68.18375,67.68875,69.03,66.57375,65.54,65.195,58.5275,54.23,59.71
551,827009,"PRAKASAM","KORISAPADU","PrasangulaPadu",80.113429,15.679372,81.85375,80.37625,80.84125,84.225,85.2475,83.53125,80.13,79.185,80.52,82.5275
552,810009,"PRAKASAM","TARLAPADU","Kaluzuwwalapadu",79.366894,15.663966,83.89125,77.8425,78.0075,79.48,79.41625,79.1125,76.535,73.9075,74.7925,76.1625
553,1332008,"KURNOOL","GADIVEMULA","Chennakkapalle",78.339237,15.639552,73.37375,68.96875,69.265,69.14125,66.7425,66.78875,65.455,59.62,56.3225,64.675
554,1320010,"KURNOOL","GONEGANDLA","Kurnur",77.733348,15.637798,72.73875,68.485,68.4075,69.91375,66.51,65.3675,64.0875,56.19,52.9775,58.75
555,813033,"PRAKASAM","DARSI","Kothapalle1",79.683383,15.67452,81.90625,77.51,77.83,80.1975,80.79375,80.295,78.0725,75.7475,76.395,80.785
556,1331888,"KURNOOL","BANDIATMAKUR","Forest12",78.686544,15.587046,81.50625,77.1225,76.12,77.28375,72.64375,72.39375,75.6525,66.2125,62.3975,71.195
557,1332007,"KURNOOL","GADIVEMULA","Bujanur",78.442003,15.663074,73.935,70.46875,70.67,70.435,67.9,67.97,67.27,61.405,58.605,64.6025
558,1303001,"KURNOOL","BANDIATMAKUR","Narayanapuram1",78.586762,15.652886,74.8625,72.4925,73.11125,73.15125,71.27625,69.7625,69.3,65.165,61.695,66.4775
559,808008,"PRAKASAM","ARDHAVEEDU","Donakonda1",78.999822,15.666432,85.59125,79.5125,78.31375,81.7575,78.2975,76.92875,78.775,72.565,70.1125,75.85
560,810010,"PRAKASAM","TARLAPADU","JangamreddiPalle",79.3438,15.672959,84.2725,77.12,77.84375,80.175,78.7875,78.11875,77.08,74.66,74.465,75.7775
561,810012,"PRAKASAM","TARLAPADU","ThummalaCheruvu",79.282346,15.652028,84.2725,77.12,77.84375,80.175,78.7875,78.11875,77.08,74.66,74.465,75.7775
562,1304001,"KURNOOL","DEVANAKONDA","Machapuram",77.655729,15.637762,72.73875,68.485,68.4075,69.91375,66.51,65.3675,64.0875,56.19,52.9775,58.75
563,1332006,"KURNOOL","GADIVEMULA","Pesaravayi",78.475478,15.653302,72.45875,69.8125,70.61875,70.15875,66.64,68.8375,66.9975,62.19,59.1,65.2325
564,845011,"PRAKASAM","NAGULUPPALAPADU","NaguluppalaPadu",80.128349,15.649486,81.97,79.96375,79.84375,83.7325,84.73625,84.24625,79.07,78.7875,79.055,82.6075
565,1323027,"KURNOOL","ADONI","S.Kondapuram",77.322845,15.645186,67.8775,64.035,65.00625,64.82,61.26625,59.1775,57.05,48.26,47.435,47.51
566,811007,"PRAKASAM","KONAKANAMITLA","NagarajuGunta",79.517929,15.66809,83.48125,77.9025,78.45375,79.29625,79.94625,79.72125,76.6825,74.7375,75.26,77.2625
567,828011,"PRAKASAM","MADDIPADU","Doddavaram",79.953015,15.665105,82.27625,80.4775,80.775,83.80625,84.5825,82.8425,80.23,77.61,79.4325,81.76
568,828004,"PRAKASAM","MADDIPADU","GundlaPalle",80.016821,15.666425,82.27625,80.4775,80.775,83.80625,84.5825,82.8425,80.23,77.61,79.4325,81.76
569,808007,"PRAKASAM","ARDHAVEEDU","AyyavariPalle",79.040831,15.663094,85.59125,79.5125,78.31375,81.7575,78.2975,76.92875,78.775,72.565,70.1125,75.85
570,812005,"PRAKASAM","PODILI","DasallaPalle",79.660032,15.670048,81.90625,77.51,77.83,80.1975,80.79375,80.295,78.0725,75.7475,76.395,80.785
571,808006,"PRAKASAM","ARDHAVEEDU","PedaKandukur",79.036217,15.650755,85.59125,79.5125,78.31375,81.7575,78.2975,76.92875,78.775,72.565,70.1125,75.85
572,1323024,"KURNOOL","ADONI","Chinnapendekal",77.3939,15.628879,68.18,65.51875,65.56625,66.40625,62.34625,60.84875,58.4425,49.725,48.395,50.3825
573,1319007,"KURNOOL","KODUMUR","Laddagiri",77.887875,15.631677,70.955,66.49625,66.55,66.58375,64.54625,63.5,62.7425,56.66,52.1825,57.4625
574,810013,"PRAKASAM","TARLAPADU","Tellapadu",79.24312,15.659622,84.34625,76.98125,78.3575,80.4325,78.84125,77.49625,78.1325,74.6975,75.0375,76.11
575,809022,"PRAKASAM","MARKAPUR","BhupathiPalle",79.17365,15.656583,84.34625,76.98125,78.3575,80.4325,78.84125,77.49625,78.1325,74.6975,75.0375,76.11
576,813032,"PRAKASAM","DARSI","LakshmiNarayanaPuram1",79.67984,15.675325,81.90625,77.51,77.83,80.1975,80.79375,80.295,78.0725,75.7475,76.395,80.785
577,1320016,"KURNOOL","GONEGANDLA","BandameediAgraharam",77.471441,15.63258,69.27875,66.98125,67.08875,68.57125,64.43375,62.70625,60.4775,52.97,50.48,53.71
578,813034,"PRAKASAM","DARSI","Korlamadugu",79.704509,15.659016,81.90625,77.51,77.83,80.1975,80.79375,80.295,78.0725,75.7475,76.395,80.785
579,1317015,"KURNOOL","ORVAKAL","Uyyalawada1",78.068901,15.635471,72.9125,67.43625,67.5125,67.4875,64.655,64.85125,63.9525,54.79,51.605,58.2475
580,810025,"PRAKASAM","TARLAPADU","KondaReddiPalle",79.34117,15.647175,85.6,77.6525,78.12875,79.30625,78.05375,78.415,77.5375,74.8025,74.81,76.8775
581,1323026,"KURNOOL","ADONI","Bychigeri",77.351476,15.637528,68.18,65.51875,65.56625,66.40625,62.34625,60.84875,58.4425,49.725,48.395,50.3825
582,1333001,"KURNOOL","BANDIATMAKUR","Bhojanam",78.511193,15.648273,71.905,67.84875,69.2825,67.985,65.35,66.22125,65.455,61.2725,57.5825,64.9475
583,829002,"PRAKASAM","CHIMAKURTHI","RangasaiPuram",79.921856,15.670299,83.05125,80.6725,79.2575,82.8725,83.98625,82.865,80.13,77.6725,78.555,81.785
584,812008,"PRAKASAM","PODILI","Zuvvaleru",79.615586,15.653079,82.38,77.35,78.15125,79.3725,80.565,79.7775,77.385,75.3675,75.7475,79.44
585,828010,"PRAKASAM","MADDIPADU","Venkateswarapuram",79.976141,15.671379,82.27625,80.4775,80.775,83.80625,84.5825,82.8425,80.23,77.61,79.4325,81.76
586,811018,"PRAKASAM","KONAKANAMITLA","VedurrallaPadu",79.461973,15.656867,83.48125,77.9025,78.45375,79.29625,79.94625,79.72125,76.6825,74.7375,75.26,77.2625
587,1395903,"KURNOOL","GADIVEMULA","Undutla",78.368228,15.631633,72.79125,68.50875,69.155,68.5125,66.76375,66.74875,65.55,59.6775,57.245,64.4475
588,811023,"PRAKASAM","KONAKANAMITLA","ThuvvaPadu",79.438938,15.640757,85.72875,78.97,78.82125,80.4325,79.37,79.75,78.54,74.3525,74.8475,77.175
589,833014,"PRAKASAM","NAGULUPPALAPADU","Pothavaram1",80.102184,15.661178,81.85375,80.37625,80.84125,84.225,85.2475,83.53125,80.13,79.185,80.52,82.5275
590,812006,"PRAKASAM","PODILI","Ramulaveedu",79.677585,15.650458,81.90625,77.51,77.83,80.1975,80.79375,80.295,78.0725,75.7475,76.395,80.785
591,1318020,"KURNOOL","KALLUR","Ulindakonda",77.971052,15.631002,70.72875,65.7175,66.4375,66.29625,63.4025,62.6275,61.96,52.5975,49.6575,56.235
592,1323030,"KURNOOL","ADONI","Parvathapuram",77.245756,15.627135,67.7725,62.5175,63.76375,63.67625,60.3925,57.77875,56.09,48.245,47.0225,45.37
593,811014,"PRAKASAM","KONAKANAMITLA","MarriPalem",79.415197,15.654073,83.89125,77.8425,78.0075,79.48,79.41625,79.1125,76.535,73.9075,74.7925,76.1625
594,812011,"PRAKASAM","PODILI","KondayaPalem",79.541901,15.662044,83.48125,77.9025,78.45375,79.29625,79.94625,79.72125,76.6825,74.7375,75.26,77.2625
595,810014,"PRAKASAM","TARLAPADU","Tarlupadu",79.210979,15.652896,84.34625,76.98125,78.3575,80.4325,78.84125,77.49625,78.1325,74.6975,75.0375,76.11
596,890912,"PRAKASAM","CHIMAKURTHI","Forest13",79.835063,15.637201,84.6925,80.415,79.33125,83.71875,84.675,83.76125,81.2875,76.7325,77.8325,82.3375
597,1318019,"KURNOOL","KALLUR","Konganapadu",77.927171,15.633241,70.955,66.49625,66.55,66.58375,64.54625,63.5,62.7425,56.66,52.1825,57.4625
598,1328002,"KURNOOL","KRISHNAGIRI","Pothugal",77.770827,15.608989,72.6025,68.18375,67.68875,69.03,66.57375,65.54,65.195,58.5275,54.23,59.71
599,828005,"PRAKASAM","MADDIPADU","RachavariPalem",80.048009,15.649397,82.88375,80.08375,79.2425,83.9975,85.23125,83.36125,80.745,77.4325,77.5675,82.1225
600,811013,"PRAKASAM","KONAKANAMITLA","Garladinne2",79.388456,15.647387,85.72875,78.97,78.82125,80.4325,79.37,79.75,78.54,74.3525,74.8475,77.175
601,1317008,"KURNOOL","ORVAKAL","Husainapuram",78.180273,15.640602,73.88125,68.7375,68.8875,68.8425,65.96625,66.59,65.2825,57.8075,54.5,61.5025
602,828006,"PRAKASAM","MADDIPADU","KeerthiPadu",80.029962,15.650877,82.27625,80.4775,80.775,83.80625,84.5825,82.8425,80.23,77.61,79.4325,81.76
603,1327004,"KURNOOL","DEVANAKONDA","Kappatralla",77.647759,15.600926,71.3525,68.0175,68.13,69.675,66.06375,64.3675,62.5925,54.93,52.7575,56.94
604,1329888,"KURNOOL","PANYAM","Forest14",78.288875,15.564101,73.37375,68.96875,69.265,69.14125,66.7425,66.78875,65.455,59.62,56.3225,64.675
605,811019,"PRAKASAM","KONAKANAMITLA","Konakanamitla1",79.488295,15.639064,86.03,79.09625,79.2,80.80125,80.82875,80.7575,79.11,74.485,75.46,78.775
606,810023,"PRAKASAM","TARLAPADU","MangalaKunta",79.312268,15.623658,85.6,77.6525,78.12875,79.30625,78.05375,78.415,77.5375,74.8025,74.81,76.8775
607,810011,"PRAKASAM","TARLAPADU","ObayaPalle",79.333454,15.651978,84.2725,77.12,77.84375,80.175,78.7875,78.11875,77.08,74.66,74.465,75.7775
608,829003,"PRAKASAM","CHIMAKURTHI","PallaMalli",79.89363,15.650666,83.05125,80.6725,79.2575,82.8725,83.98625,82.865,80.13,77.6725,78.555,81.785
609,1317007,"KURNOOL","ORVAKAL","Brahmanapalle",78.231144,15.641746,73.88125,68.7375,68.8875,68.8425,65.96625,66.59,65.2825,57.8075,54.5,61.5025
610,829004,"PRAKASAM","CHIMAKURTHI","Nekunambadu",79.924415,15.650242,83.05125,80.6725,79.2575,82.8725,83.98625,82.865,80.13,77.6725,78.555,81.785
611,1317009,"KURNOOL","ORVAKAL","N.Konthalapadu",78.143502,15.634447,72.9125,67.43625,67.5125,67.4875,64.655,64.85125,63.9525,54.79,51.605,58.2475
612,812010,"PRAKASAM","PODILI","Thummagunta",79.581958,15.650872,82.38,77.35,78.15125,79.3725,80.565,79.7775,77.385,75.3675,75.7475,79.44
613,812007,"PRAKASAM","MADDIPADU","Mallavaram",79.979789,15.647939,82.88375,80.08375,79.2425,83.9975,85.23125,83.36125,80.745,77.4325,77.5675,82.1225
614,810024,"PRAKASAM","TARLAPADU","JagannadhaPuram1",79.302769,15.648393,85.6,77.6525,78.12875,79.30625,78.05375,78.415,77.5375,74.8025,74.81,76.8775
615,1333004,"KURNOOL","BANDIATMAKUR","PeddaDevalapuram",78.547863,15.643361,71.905,67.84875,69.2825,67.985,65.35,66.22125,65.455,61.2725,57.5825,64.9475
616,828009,"PRAKASAM","PODILI","Mallavaram1",79.639406,15.648514,85.11875,78.915,78.76375,80.795,81.24125,80.7975,79.645,74.7525,76.1775,80.57
617,1323004,"KURNOOL","ADONI","Yadavalle",77.124559,15.619431,66.93,60.6125,62.1725,61.99,58.77,56.245,54.4925,47.945,46.1975,43.7425
618,1317016,"KURNOOL","ORVAKAL","Uppalapadu",78.116474,15.629042,72.9125,67.43625,67.5125,67.4875,64.655,64.85125,63.9525,54.79,51.605,58.2475
619,1390908,"KURNOOL","ADONI","AdoniM",77.276163,15.622664,67.8775,64.035,65.00625,64.82,61.26625,59.1775,57.05,48.26,47.435,47.51
620,812012,"PRAKASAM","PODILI","Salakanuthala",79.548066,15.650099,83.48125,77.9025,78.45375,79.29625,79.94625,79.72125,76.6825,74.7375,75.26,77.2625
621,1329004,"KURNOOL","VELDURTHIKURNOOL","Pullagummi",78.025452,15.624224,70.72875,65.7175,66.4375,66.29625,63.4025,62.6275,61.96,52.5975,49.6575,56.235
622,1332009,"KURNOOL","GADIVEMULA","Chindukuru",78.446686,15.634959,72.79125,68.50875,69.155,68.5125,66.76375,66.74875,65.55,59.6775,57.245,64.4475
623,1323025,"KURNOOL","ADONI","Sambagallu",77.367045,15.618534,68.18,65.51875,65.56625,66.40625,62.34625,60.84875,58.4425,49.725,48.395,50.3825
624,1329005,"KURNOOL","VELDURTHIKURNOOL","Kalugotla2",78.046704,15.591137,70.72875,65.7175,66.4375,66.29625,63.4025,62.6275,61.96,52.5975,49.6575,56.235
625,810021,"PRAKASAM","TARLAPADU","ChennaReddiPalle",79.251651,15.633772,85.6,77.6525,78.12875,79.30625,78.05375,78.415,77.5375,74.8025,74.81,76.8775
626,1323039,"KURNOOL","ADONI","MandagiriRural",77.291088,15.596511,67.8775,64.035,65.00625,64.82,61.26625,59.1775,57.05,48.26,47.435,47.51
627,811020,"PRAKASAM","KONAKANAMITLA","VeerabhadraPuram",79.521076,15.651206,83.48125,77.9025,78.45375,79.29625,79.94625,79.72125,76.6825,74.7375,75.26,77.2625
628,1390909,"KURNOOL","ADONI","Vengalapuram",77.294789,15.625192,67.8775,64.035,65.00625,64.82,61.26625,59.1775,57.05,48.26,47.435,47.51
629,813035,"PRAKASAM","DARSI","ThripuraSundariPuram",79.727679,15.644756,84.88125,79.935,79.4825,82.6325,82.64875,82.3075,81.0875,75.855,77.505,81.7375
630,809023,"PRAKASAM","MARKAPUR","BondalaPadu",79.184234,15.629394,85.19125,76.19125,77.5825,78.88125,77.87,77.495,75.3675,73.3975,73.4475,75.97
631,834001,"PRAKASAM","CUMBUM","Jangamguntla",79.146232,15.640815,84.17625,76.60375,76.61625,79.235,77.5775,75.96125,75.385,71.6575,71.175,74.17
632,1323041,"KURNOOL","ADONI","Nettekal",77.342597,15.617775,67.8775,64.035,65.00625,64.82,61.26625,59.1775,57.05,48.26,47.435,47.51
633,828008,"PRAKASAM","MADDIPADU","Kolachanakota",79.997761,15.641418,82.88375,80.08375,79.2425,83.9975,85.23125,83.36125,80.745,77.4325,77.5675,82.1225
634,1323005,"KURNOOL","ADONI","Baladur",77.130768,15.604216,66.93,60.6125,62.1725,61.99,58.77,56.245,54.4925,47.945,46.1975,43.7425
635,845010,"PRAKASAM","NAGULUPPALAPADU","Machavaram1",80.159812,15.639522,80.4725,79.19875,79.74875,84.30125,86.18625,85.1025,78.0925,78.8625,80.6575,84.48
636,1333003,"KURNOOL","BANDIATMAKUR","Santhajutur",78.538342,15.620136,71.905,67.84875,69.2825,67.985,65.35,66.22125,65.455,61.2725,57.5825,64.9475
637,1326004,"KURNOOL","ASPARI","Banavanur",77.492095,15.605714,69.27875,66.98125,67.08875,68.57125,64.43375,62.70625,60.4775,52.97,50.48,53.71
638,812023,"PRAKASAM","PODILI","Nimmavaram",79.658963,15.632272,84.88125,79.935,79.4825,82.6325,82.64875,82.3075,81.0875,75.855,77.505,81.7375
639,813036,"PRAKASAM","DARSI","KrishnaPuram",79.704992,15.64121,84.88125,79.935,79.4825,82.6325,82.64875,82.3075,81.0875,75.855,77.505,81.7375
640,1317017,"KURNOOL","ORVAKAL","Kalva",78.182675,15.612411,73.88125,68.7375,68.8875,68.8425,65.96625,66.59,65.2825,57.8075,54.5,61.5025
641,829005,"PRAKASAM","CHIMAKURTHI","Chandrapadu",79.941231,15.631893,84.05125,80.965,79.43125,84.21875,85.80375,84.2325,81.9975,77.3975,77.0875,82.5375
642,1327006,"KURNOOL","DEVANAKONDA","P.Kotakonda",77.700921,15.596373,72.73875,68.485,68.4075,69.91375,66.51,65.3675,64.0875,56.19,52.9775,58.75
643,845004,"PRAKASAM","NAGULUPPALAPADU","Chadalawada",80.098681,15.620277,81.97,79.96375,79.84375,83.7325,84.73625,84.24625,79.07,78.7875,79.055,82.6075
644,1328006,"KURNOOL","KRISHNAGIRI","ShotriumYerragudi",77.837834,15.608119,72.6025,68.18375,67.68875,69.03,66.57375,65.54,65.195,58.5275,54.23,59.71
645,812013,"PRAKASAM","PODILI","MugaChinthala",79.524555,15.635283,86.03,79.09625,79.2,80.80125,80.82875,80.7575,79.11,74.485,75.46,78.775
646,1333002,"KURNOOL","BANDIATMAKUR","Paramatur",78.502081,15.626749,71.905,67.84875,69.2825,67.985,65.35,66.22125,65.455,61.2725,57.5825,64.9475
647,1323037,"KURNOOL","ADONI","Kallubavi",77.249163,15.597078,67.7725,62.5175,63.76375,63.67625,60.3925,57.77875,56.09,48.245,47.0225,45.37
648,810026,"PRAKASAM","TARLAPADU","LakshmakkaPalle",79.351063,15.624904,85.72875,78.97,78.82125,80.4325,79.37,79.75,78.54,74.3525,74.8475,77.175
649,813037,"PRAKASAM","DARSI","Pedauyyalawada",79.718795,15.630094,84.88125,79.935,79.4825,82.6325,82.64875,82.3075,81.0875,75.855,77.505,81.7375
650,812014,"PRAKASAM","PODILI","Dondleru",79.557006,15.632123,85.11875,78.915,78.76375,80.795,81.24125,80.7975,79.645,74.7525,76.1775,80.57
651,1333006,"KURNOOL","BANDIATMAKUR","GaliChennaiahPalem",78.575535,15.611746,74.42875,70.90375,71.27,71.115,69.47125,67.36375,68.515,63.1375,58.375,66.0225
652,810015,"PRAKASAM","TARLAPADU","KarumaniPalle",79.221783,15.632902,85.19125,76.19125,77.5825,78.88125,77.87,77.495,75.3675,73.3975,73.4475,75.97
653,1323006,"KURNOOL","ADONI","ChinnaGonehal",77.159295,15.603107,67.7725,62.5175,63.76375,63.67625,60.3925,57.77875,56.09,48.245,47.0225,45.37
654,828007,"PRAKASAM","MADDIPADU","VellamPalle",80.005197,15.629958,82.88375,80.08375,79.2425,83.9975,85.23125,83.36125,80.745,77.4325,77.5675,82.1225
655,829009,"PRAKASAM","CHIMAKURTHI","Devarapalem",79.78682,15.628441,84.6925,80.415,79.33125,83.71875,84.675,83.76125,81.2875,76.7325,77.8325,82.3375
656,828013,"PRAKASAM","MADDIPADU","Maddipadu1",80.019968,15.616989,82.88375,80.08375,79.2425,83.9975,85.23125,83.36125,80.745,77.4325,77.5675,82.1225
657,1328007,"KURNOOL","KRISHNAGIRI","Tallagokulapadu",77.877551,15.60369,70.955,66.49625,66.55,66.58375,64.54625,63.5,62.7425,56.66,52.1825,57.4625
658,890913,"PRAKASAM","TARLAPADU","Forest15",79.358682,15.596263,85.72875,78.97,78.82125,80.4325,79.37,79.75,78.54,74.3525,74.8475,77.175
659,812021,"PRAKASAM","PODILI","AkkaCheruvu",79.582991,15.633335,85.11875,78.915,78.76375,80.795,81.24125,80.7975,79.645,74.7525,76.1775,80.57
660,1323040,"KURNOOL","ADONI","Dibbanakal1",77.319418,15.604843,67.8775,64.035,65.00625,64.82,61.26625,59.1775,57.05,48.26,47.435,47.51
661,1323031,"KURNOOL","ADONI","V.Kondapuram",77.214994,15.611255,67.7725,62.5175,63.76375,63.67625,60.3925,57.77875,56.09,48.245,47.0225,45.37
662,1323007,"KURNOOL","ADONI","ChinnaHarivanam",77.181611,15.596081,67.7725,62.5175,63.76375,63.67625,60.3925,57.77875,56.09,48.245,47.0225,45.37
663,1326001,"KURNOOL","ASPARI","DudadudiKotakonda",77.406355,15.590073,68.18,65.51875,65.56625,66.40625,62.34625,60.84875,58.4425,49.725,48.395,50.3825
664,1326003,"KURNOOL","ASPARI","Karumanchi",77.454595,15.591989,69.27875,66.98125,67.08875,68.57125,64.43375,62.70625,60.4775,52.97,50.48,53.71
665,1332011,"KURNOOL","GADIVEMULA","Gadigarevula",78.437048,15.60994,72.79125,68.50875,69.155,68.5125,66.76375,66.74875,65.55,59.6775,57.245,64.4475
666,1332010,"KURNOOL","GADIVEMULA","Karimaddala",78.488285,15.606443,71.905,67.84875,69.2825,67.985,65.35,66.22125,65.455,61.2725,57.5825,64.9475
667,829012,"PRAKASAM","CHIMAKURTHI","Chimakurthi1",79.859441,15.598666,84.05125,80.965,79.43125,84.21875,85.80375,84.2325,81.9975,77.3975,77.0875,82.5375
668,828012,"PRAKASAM","MADDIPADU","Nelatur",79.982959,15.616883,82.88375,80.08375,79.2425,83.9975,85.23125,83.36125,80.745,77.4325,77.5675,82.1225
669,1323015,"KURNOOL","ADONI","Ballekallu",77.208005,15.595078,67.7725,62.5175,63.76375,63.67625,60.3925,57.77875,56.09,48.245,47.0225,45.37
670,812022,"PRAKASAM","PODILI","Podili1",79.624546,15.603272,85.11875,78.915,78.76375,80.795,81.24125,80.7975,79.645,74.7525,76.1775,80.57
671,829007,"PRAKASAM","CHIMAKURTHI","Bandlamudi",79.895828,15.620181,84.05125,80.965,79.43125,84.21875,85.80375,84.2325,81.9975,77.3975,77.0875,82.5375
672,829008,"PRAKASAM","CHIMAKURTHI","Padamatinaidupalem",79.88097,15.624355,84.05125,80.965,79.43125,84.21875,85.80375,84.2325,81.9975,77.3975,77.0875,82.5375
673,810016,"PRAKASAM","TARLAPADU","MeerjaPeta",79.222451,15.617147,85.19125,76.19125,77.5825,78.88125,77.87,77.495,75.3675,73.3975,73.4475,75.97
674,808012,"PRAKASAM","ARDHAVEEDU","Yerraguntla1",78.920548,15.623556,87.3225,81.57375,81.1125,82.6025,78.18,77.65625,81.31,74.5175,71.465,77.3425
675,812026,"PRAKASAM","PODILI","AnnaVaram1",79.696462,15.625751,84.88125,79.935,79.4825,82.6325,82.64875,82.3075,81.0875,75.855,77.505,81.7375
676,815013,"PRAKASAM","THALLUR","SurayaPalem",79.743388,15.63284,84.88125,79.935,79.4825,82.6325,82.64875,82.3075,81.0875,75.855,77.505,81.7375
677,1327010,"KURNOOL","DEVANAKONDA","Karivemula",77.58443,15.587385,71.3525,68.0175,68.13,69.675,66.06375,64.3675,62.5925,54.93,52.7575,56.94
678,1323042,"KURNOOL","ADONI","Salakalakonda",77.349206,15.598366,67.8775,64.035,65.00625,64.82,61.26625,59.1775,57.05,48.26,47.435,47.51
679,1327001,"KURNOOL","DEVANAKONDA","Potlapadu",77.524717,15.594291,69.27875,66.98125,67.08875,68.57125,64.43375,62.70625,60.4775,52.97,50.48,53.71
680,834002,"PRAKASAM","CUMBUM","LanjaKota",79.16294,15.612251,85.19125,76.19125,77.5825,78.88125,77.87,77.495,75.3675,73.3975,73.4475,75.97
681,1329002,"KURNOOL","VELDURTHIKURNOOL","Mallepalle",77.949835,15.598859,70.955,66.49625,66.55,66.58375,64.54625,63.5,62.7425,56.66,52.1825,57.4625
682,812024,"PRAKASAM","PODILI","Teegadurthipadu",79.669742,15.614064,84.88125,79.935,79.4825,82.6325,82.64875,82.3075,81.0875,75.855,77.505,81.7375
683,828015,"PRAKASAM","MADDIPADU","Nandipadu",80.050897,15.627809,81.97,79.96375,79.84375,83.7325,84.73625,84.24625,79.07,78.7875,79.055,82.6075
684,813038,"PRAKASAM","DARSI","ChinaUyyalawada",79.738243,15.614249,84.88125,79.935,79.4825,82.6325,82.64875,82.3075,81.0875,75.855,77.505,81.7375
685,1324001,"KURNOOL","HOLAGUNDA","Gajjehalli",77.04791,15.572457,65.53125,58.98875,60.69875,60.40125,56.8775,54.8,52.6425,47.12,45.1875,42.77
686,1324004,"KURNOOL","HOLAGUNDA","Ingaladahal",77.138453,15.592077,66.93,60.6125,62.1725,61.99,58.77,56.245,54.4925,47.945,46.1975,43.7425
687,1317018,"KURNOOL","ORVAKAL","Palakolanu",78.132833,15.600283,72.9125,67.43625,67.5125,67.4875,64.655,64.85125,63.9525,54.79,51.605,58.2475
688,1329006,"KURNOOL","VELDURTHIKURNOOL","Bukkapuram1",78.089613,15.592238,72.9125,67.43625,67.5125,67.4875,64.655,64.85125,63.9525,54.79,51.605,58.2475
689,1303006,"KURNOOL","ADONI","Basapuram",77.363533,15.586311,68.18,65.51875,65.56625,66.40625,62.34625,60.84875,58.4425,49.725,48.395,50.3825
