"Sno","SP_CODE","DISTRICT","MANDAL","VILLAGE","LON","LAT","07-08-19","08-08-19","09-08-19","10-08-19","11-08-19","12-08-19","13-08-19","14-08-19","15-08-19","16-08-19"
1,826001,"PRAKASAM","JANAKAVARAMPANGULU","Ramakuru",80.03999,15.892867,38.41,39.29,38.55,38.14,38.98,40.01,40.85,40.99,41.53,41.98
2,1315004,"KURNOOL","JUPADUBUNGALOW","Bollavaram",78.377097,15.885363,33.28,34.42,33.2,33.99,35.25,35.48,36.93,36.49,36.59,36.05
3,1330889,"KURNOOL","ATMAKURKURNOOL","Pinnapuram",78.654945,15.886427,30.4,31.42,31.44,31.44,33.11,33.66,34.82,34.66,34.59,34.51
4,820009,"PRAKASAM","MARTUR","LakkavaramAgraharam",80.061727,15.906479,38.59,39.47,38.75,38.62,39.05,40.24,41.12,41.23,41.73,42.11
5,1303014,"KURNOOL","MANTRALAYAM","Budur",77.380195,15.868793,33.56,34.96,34.13,33.2,34.84,35.17,34.82,35.25,34.62,35.37
6,805004,"PRAKASAM","DONAKONDA","PadamaraLakshmipuram",79.387233,15.888066,36.06,37.83,35.92,35.33,37.79,37.56,38.71,39.51,39.47,39.11
7,822002,"PRAKASAM","KARAMCHEDU","Karamchedu1",80.321381,15.887126,39.1,40.13,39.41,39.94,39.34,40.43,41.65,42.01,42.14,42.92
8,806008,"PRAKASAM","PEDAARAVEEDU","BoyadaGumpula",79.243357,15.885803,34.1,36.25,35.22,34.58,37.41,36.8,38.07,38.74,39.1,38.55
9,1301011,"KURNOOL","KOWTHALAM","Thippaladoddi",77.165642,15.871667,31.69,34.4,33.84,32.7,34.77,34.79,34.37,34.81,34.27,34.66
10,1307007,"KURNOOL","KURNOOL","G.Singavaram1",77.934328,15.87304,32.71,35.16,33.06,33.72,35.29,35.49,35.97,35.78,35.25,36.12
11,806007,"PRAKASAM","PEDAARAVEEDU","ThokaPalle",79.291841,15.882713,35.53,37.68,36.05,35.45,38.15,37.51,38.81,39.53,39.83,39.41
12,1301001,"KURNOOL","KOWTHALAM","Nadichagi",77.050836,15.858904,31.39,34.62,33.38,32.71,34.94,34.72,34.32,35.08,34.44,34.58
13,1303015,"KURNOOL","MANTRALAYAM","Chilakaladona",77.417441,15.866402,33.56,34.96,34.13,33.2,34.84,35.17,34.82,35.25,34.62,35.37
14,756005,"GUNTUR","KARLAPALEM","Perali",80.564029,15.892302,38.52,39.08,39.32,39.58,39.33,40.28,41.48,43.19,42.36,42.07
15,806005,"PRAKASAM","PEDAARAVEEDU","Cumbampadu",79.334104,15.878309,35.53,37.68,36.05,35.45,38.15,37.51,38.81,39.53,39.83,39.41
16,805003,"PRAKASAM","DONAKONDA","PolePalle",79.430973,15.87979,36.06,37.83,35.92,35.33,37.79,37.56,38.71,39.51,39.47,39.11
17,1314002,"KURNOOL","PAMULAPADU","Jutur",78.448881,15.870672,33.28,34.42,33.2,33.99,35.25,35.48,36.93,36.49,36.59,36.05
18,806004,"PRAKASAM","PEDAARAVEEDU","Ambapuram",79.335029,15.893988,35.53,37.68,36.05,35.45,38.15,37.51,38.81,39.53,39.83,39.41
19,1314003,"KURNOOL","PAMULAPADU","Chelimella",78.480902,15.863307,33.25,34.09,33.31,33.96,35.08,35.44,36.9,36.6,36.61,36.42
20,1302015,"KURNOOL","KOSIGI","Yandapalle",77.215956,15.869363,31.69,34.4,33.84,32.7,34.77,34.79,34.37,34.81,34.27,34.66
21,804019,"PRAKASAM","KURICHEDU","Dekanakonda",79.671579,15.883023,37.24,38.39,36.77,36.41,38.27,38.49,39.98,40.49,40.39,40.71
22,757017,"GUNTUR","BAPATLA","BapatlaWestRural",80.435648,15.887003,38.92,40.05,39.74,39.9,39.48,40.47,41.82,42.06,42.45,43.04
23,807016,"PRAKASAM","DORNALA","ChilakaCherlaGudem",79.004664,15.885889,28.95,29.7,30.5,30.04,32.93,33.13,33.69,33.86,33.7,33.97
24,1307001,"KURNOOL","KURNOOL","Sunkesula",77.834714,15.870627,32.96,34.79,32.95,33.65,35.04,35.47,35.85,35.71,34.93,36.04
25,1315003,"KURNOOL","JUPADUBUNGALOW","Tangadancha",78.353557,15.866583,33.28,34.42,33.2,33.99,35.25,35.48,36.93,36.49,36.59,36.05
26,820013,"PRAKASAM","MARTUR","BollaPalle",80.09087,15.883023,38.59,39.47,38.75,38.62,39.05,40.24,41.12,41.23,41.73,42.11
27,1301010,"KURNOOL","KOWTHALAM","Chudi",77.14523,15.85101,31.39,34.62,33.38,32.71,34.94,34.72,34.32,35.08,34.44,34.58
28,814004,"PRAKASAM","MUNDLAMURU","Purimetla",79.845342,15.879728,38.04,38.95,37.21,37.18,38.88,39.03,40.57,40.88,41.16,41.61
29,1305005,"KURNOOL","CBELAGAL","Kothakota1",77.797096,15.863397,32.96,34.79,32.95,33.65,35.04,35.47,35.85,35.71,34.93,36.04
30,1307008,"KURNOOL","KURNOOL","Nidzur",77.97209,15.86234,32.72,35.21,33.11,33.75,35.26,35.5,36.14,36.11,35.54,36.1
31,1302024,"KURNOOL","KOSIGI","Kosigi1",77.247141,15.839242,30.9,34.52,32.83,32.01,34.3,34.46,33.97,34.16,34.16,34.35
32,757019,"GUNTUR","BAPATLA","Adivi",80.486393,15.850878,38.84,39.83,39.66,39.86,39.58,40.51,41.86,42.25,42.77,42.86
33,814010,"PRAKASAM","MUNDLAMURU","Marella",79.886427,15.871709,38.41,39.28,38,37.76,39.05,39.63,40.68,41.09,41.55,41.96
34,814006,"PRAKASAM","MUNDLAMURU","Vemula1",79.76763,15.869017,38.04,38.95,37.21,37.18,38.88,39.03,40.57,40.88,41.16,41.61
35,1303013,"KURNOOL","MANTRALAYAM","Sunkeswari",77.346557,15.85722,32.46,35.31,34.02,32.87,34.77,34.8,34.5,34.64,34.2,35.1
36,1308007,"KURNOOL","NANDIKOTKUR","Allur1",78.201215,15.870373,33.15,35.13,33.58,34.08,35.44,35.53,37,37.37,36.46,36.36
37,807013,"PRAKASAM","DORNALA","Nallaguntla",78.925441,15.869878,27.74,28.43,29.22,28.85,31.45,31.9,32.44,32.16,32.23,32.56
38,804018,"PRAKASAM","KURICHEDU","Peddavaram",79.638402,15.869502,36.82,38.21,36.52,35.95,37.91,38.27,39.64,40.03,39.92,39.88
39,1311007,"KURNOOL","ATMAKURKURNOOL","Krishnapuram1",78.639276,15.877106,32.5,33.5,33.3,33.4,34.71,35.29,36.77,36.57,36.4,36.41
40,825001,"PRAKASAM","INKOLLU","Nagandla",80.146407,15.880184,38.59,39.47,38.75,38.62,39.05,40.24,41.12,41.23,41.73,42.11
41,890901,"PRAKASAM","PEDAARAVEEDU","Forest",79.272004,15.877625,35.53,37.68,36.05,35.45,38.15,37.51,38.81,39.53,39.83,39.41
42,744020,"GUNTUR","NUZENDLA","Thimmapuram",79.744318,15.87715,37.24,38.39,36.77,36.41,38.27,38.49,39.98,40.49,40.39,40.71
43,804009,"PRAKASAM","KURICHEDU","NamassivayaPuram",79.60792,15.881807,36.82,38.21,36.52,35.95,37.91,38.27,39.64,40.03,39.92,39.88
44,1302023,"KURNOOL","KOSIGI","Pendekal",77.26401,15.853554,32.46,35.31,34.02,32.87,34.77,34.8,34.5,34.64,34.2,35.1
45,1301012,"KURNOOL","KOWTHALAM","Karani1",77.177816,15.85531,31.69,34.4,33.84,32.7,34.77,34.79,34.37,34.81,34.27,34.66
46,1315007,"KURNOOL","JUPADUBUNGALOW","Bannur",78.398107,15.860723,33.28,34.42,33.2,33.99,35.25,35.48,36.93,36.49,36.59,36.05
47,1314004,"KURNOOL","PAMULAPADU","Iskala",78.51594,15.859633,33.25,34.09,33.31,33.96,35.08,35.44,36.9,36.6,36.61,36.42
48,807011,"PRAKASAM","DORNALA","Pedamanthanala",78.891419,15.881823,27.74,28.43,29.22,28.85,31.45,31.9,32.44,32.16,32.23,32.56
49,1304013,"KURNOOL","NANDAVARAM","Ponakaladinne",77.595749,15.843108,34.11,34.88,32.42,33.23,34.47,35.53,35.26,34.87,35.17,34.87
50,757020,"GUNTUR","BAPATLA","MaruproluvaripalemRural",80.469103,15.876046,38.84,39.83,39.66,39.86,39.58,40.51,41.86,42.25,42.77,42.86
51,1305009,"KURNOOL","CBELAGAL","C.Belagal",77.662399,15.831281,33.31,34.58,32.14,33.32,34.47,35.31,35.41,35,35.12,35.36
52,1302026,"KURNOOL","KOSIGI","Vandagallu",77.202795,15.844364,30.9,34.52,32.83,32.01,34.3,34.46,33.97,34.16,34.16,34.35
53,1302025,"KURNOOL","KOSIGI","Nelakosigi",77.227482,15.845152,30.9,34.52,32.83,32.01,34.3,34.46,33.97,34.16,34.16,34.35
54,1308009,"KURNOOL","NANDIKOTKUR","NandiKotkur1",78.257581,15.855879,33.1,34.85,33.3,34.02,35.3,35.47,37.02,36.9,36.56,36.25
55,1307006,"KURNOOL","KURNOOL","Basavapuram",77.91545,15.849253,32.26,35.27,32.71,33.47,34.92,35.34,35.92,35.93,35.4,35.82
56,1307014,"KURNOOL","KURNOOL","E.Thandrapadu",78.050918,15.857393,32.96,35.07,33.23,33.82,35.3,35.54,36.46,36.71,35.9,36.09
57,822006,"PRAKASAM","KARAMCHEDU","Swarna",80.284883,15.858035,39.1,40.13,39.41,39.94,39.34,40.43,41.65,42.01,42.14,42.92
58,826002,"PRAKASAM","JANAKAVARAMPANGULU","KondaManjulur",80.08506,15.866574,38.59,39.47,38.75,38.62,39.05,40.24,41.12,41.23,41.73,42.11
59,1301018,"KURNOOL","KOWTHALAM","Katriki",77.08266,15.84308,31.73,34.75,32.98,32.4,34.58,34.91,34.28,34.72,34.47,34.37
60,822004,"PRAKASAM","KARAMCHEDU","Daggubadu",80.214696,15.869375,39.06,40.05,39.21,39.66,39.38,40.54,41.62,41.68,42.06,42.73
61,806009,"PRAKASAM","PEDAARAVEEDU","Badveedu",79.202687,15.867748,34.1,36.25,35.22,34.58,37.41,36.8,38.07,38.74,39.1,38.55
62,816007,"PRAKASAM","ADDANKI","ChakrayaPalem",79.953379,15.870226,38.41,39.29,38.55,38.14,38.98,40.01,40.85,40.99,41.53,41.98
63,805006,"PRAKASAM","DONAKONDA","RudraSamudram",79.407898,15.854422,36.06,37.83,35.92,35.33,37.79,37.56,38.71,39.51,39.47,39.11
64,1307009,"KURNOOL","KURNOOL","Munagalapadu",77.99343,15.853307,32.72,35.21,33.11,33.75,35.26,35.5,36.14,36.11,35.54,36.1
65,816006,"PRAKASAM","ADDANKI","Kalavakuru",79.992281,15.869266,38.41,39.29,38.55,38.14,38.98,40.01,40.85,40.99,41.53,41.98
66,807010,"PRAKASAM","DORNALA","RollaPenta",78.851539,15.873549,27.74,28.43,29.22,28.85,31.45,31.9,32.44,32.16,32.23,32.56
67,1311008,"KURNOOL","ATMAKURKURNOOL","Siddepalle",78.621951,15.854083,32.5,33.5,33.3,33.4,34.71,35.29,36.77,36.57,36.4,36.41
68,807019,"PRAKASAM","DORNALA","KataKaniPalle",79.148577,15.862077,31.39,33.05,32.81,32.19,35.21,35.03,35.9,36.5,36.55,36.24
69,890902,"PRAKASAM","PEDAARAVEEDU","Forest1",79.29462,15.83525,36.09,37.78,35.96,35.43,37.81,36.99,38.33,39.18,39.17,39.08
70,805005,"PRAKASAM","DONAKONDA","Ramapuram1",79.371499,15.866269,36.06,37.83,35.92,35.33,37.79,37.56,38.71,39.51,39.47,39.11
71,1303016,"KURNOOL","MANTRALAYAM","HagaruruThimmapuram",77.383155,15.837778,32.57,34.72,32.48,32.55,34.49,34.56,34.09,34.22,34.13,34.92
72,1305006,"KURNOOL","CBELAGAL","Polakal",77.745425,15.831633,33.31,34.58,32.14,33.32,34.47,35.31,35.41,35,35.12,35.36
73,1301017,"KURNOOL","KOWTHALAM","Podalakunta",77.114373,15.844243,31.73,34.75,32.98,32.4,34.58,34.91,34.28,34.72,34.47,34.37
74,754888,"GUNTUR","NIZAMPATNAM","Dindi",80.744578,15.848695,37.9,38.71,39.16,39.02,39.86,40.54,42.38,42.57,41.26,39.64
75,1311010,"KURNOOL","ATMAKURKURNOOL","Karivena",78.551542,15.854459,32.5,33.5,33.3,33.4,34.71,35.29,36.77,36.57,36.4,36.41
76,807014,"PRAKASAM","DORNALA","NallaGuntlaGudem",78.892899,15.87313,27.74,28.43,29.22,28.85,31.45,31.9,32.44,32.16,32.23,32.56
77,1304017,"KURNOOL","NANDAVARAM","Halaharvi1",77.432051,15.82519,32.57,34.72,32.48,32.55,34.49,34.56,34.09,34.22,34.13,34.92
78,1311006,"KURNOOL","ATMAKURKURNOOL","Siddapuram",78.66431,15.855859,30.4,31.42,31.44,31.44,33.11,33.66,34.82,34.66,34.59,34.51
79,1301019,"KURNOOL","KOWTHALAM","Myaliganur",77.04405,15.838673,32.09,34.79,32.79,32.7,34.73,35.23,34.47,35.06,34.79,34.51
80,805007,"PRAKASAM","DONAKONDA","BadaPuram",79.46873,15.851481,36.44,37.97,35.96,35.51,37.7,37.82,39.15,39.69,39.5,38.99
81,1302020,"KURNOOL","KOSIGI","Pallipadu",77.311235,15.844938,30.88,34.43,32.59,32.08,34.29,34.23,33.92,34.05,33.86,34.65
82,806006,"PRAKASAM","PEDAARAVEEDU","ThangiralaPalle",79.306692,15.843406,36.09,37.78,35.96,35.43,37.81,36.99,38.33,39.18,39.17,39.08
83,1307015,"KURNOOL","KURNOOL","Gondiparla",78.071992,15.836684,32.32,34.89,32.72,33.48,35.08,35.32,36.15,35.97,35.16,36.19
84,1301013,"KURNOOL","KOWTHALAM","Mallanahatti",77.180339,15.831734,30.9,34.52,32.83,32.01,34.3,34.46,33.97,34.16,34.16,34.35
85,1302022,"KURNOOL","KOSIGI","Chintakunta",77.280503,15.840529,30.88,34.43,32.59,32.08,34.29,34.23,33.92,34.05,33.86,34.65
86,1307010,"KURNOOL","KURNOOL","Mamidalapadu",78.006022,15.842354,32.2,35.14,32.81,33.55,35.03,35.4,36.14,35.83,35.31,36.15
87,804014,"PRAKASAM","KURICHEDU","GangadonaKonda",79.526818,15.857683,36.44,37.97,35.96,35.51,37.7,37.82,39.15,39.69,39.5,38.99
88,804016,"PRAKASAM","KURICHEDU","Alavalapadu",79.574367,15.853753,36.82,38.21,36.52,35.95,37.91,38.27,39.64,40.03,39.92,39.88
89,1301014,"KURNOOL","KOWTHALAM","Chirtapalle",77.164225,15.827028,30.9,34.52,32.83,32.01,34.3,34.46,33.97,34.16,34.16,34.35
90,1306004,"KURNOOL","GUDURKURNOOL","Mallapuram",77.808506,15.834945,32.59,34.49,32.08,33.31,34.67,35.22,35.64,35.47,35.23,35.57
91,806010,"PRAKASAM","PEDAARAVEEDU","Pragallapadu",79.241946,15.853006,34.1,36.25,35.22,34.58,37.41,36.8,38.07,38.74,39.1,38.55
92,813009,"PRAKASAM","DARSI","Devavaram",79.697216,15.855178,37.24,38.39,36.77,36.41,38.27,38.49,39.98,40.49,40.39,40.71
93,814007,"PRAKASAM","MUNDLAMURU","Vemulabanda",79.792682,15.864356,38.04,38.95,37.21,37.18,38.88,39.03,40.57,40.88,41.16,41.61
94,1307002,"KURNOOL","KURNOOL","Remata",77.850308,15.831649,32.26,35.27,32.71,33.47,34.92,35.34,35.92,35.93,35.4,35.82
95,825004,"PRAKASAM","INKOLLU","Pavulur",80.168854,15.855691,39.06,40.05,39.21,39.66,39.38,40.54,41.62,41.68,42.06,42.73
96,823005,"PRAKASAM","CHIRALA","GavinivariPalem",80.434473,15.846975,38.74,39.35,38.85,39.1,39.44,40.23,42.36,43.2,43.05,41.8
97,1308008,"KURNOOL","NANDIKOTKUR","Vaddamanu",78.198218,15.844669,32.71,35.34,33.07,33.71,35.39,35.39,36.38,36.53,35.5,36.21
98,1303017,"KURNOOL","MANTRALAYAM","SowlaHalli",77.349427,15.837846,30.88,34.43,32.59,32.08,34.29,34.23,33.92,34.05,33.86,34.65
99,814008,"PRAKASAM","MUNDLAMURU","Umamaheswarapuram",79.81612,15.856924,38.04,38.95,37.21,37.18,38.88,39.03,40.57,40.88,41.16,41.61
100,823002,"PRAKASAM","CHIRALA","IpuruPalemRural",80.394723,15.838719,38.74,39.35,38.85,39.1,39.44,40.23,42.36,43.2,43.05,41.8
101,1305010,"KURNOOL","CBELAGAL","Kambadahal",77.625718,15.829126,34.11,34.88,32.42,33.23,34.47,35.53,35.26,34.87,35.17,34.87
102,804017,"PRAKASAM","KURICHEDU","Bodanampadu",79.613146,15.844473,37.51,38.47,36.71,36.21,38.24,38.25,39.37,40.04,39.96,39.99
103,826003,"PRAKASAM","JANAKAVARAMPANGULU","Bytamanjulur",80.053078,15.860049,38.59,39.47,38.75,38.62,39.05,40.24,41.12,41.23,41.73,42.11
104,1306003,"KURNOOL","GUDURKURNOOL","Munagala",77.788504,15.828891,32.59,34.49,32.08,33.31,34.67,35.22,35.64,35.47,35.23,35.57
105,890903,"PRAKASAM","PEDAARAVEEDU","Forest2",79.254261,15.840844,36.09,37.78,35.96,35.43,37.81,36.99,38.33,39.18,39.17,39.08
106,806011,"PRAKASAM","PEDAARAVEEDU","Gobburu",79.268763,15.83532,36.09,37.78,35.96,35.43,37.81,36.99,38.33,39.18,39.17,39.08
107,1307017,"KURNOOL","KURNOOL","Pudur",78.143665,15.829749,32.32,34.89,32.72,33.48,35.08,35.32,36.15,35.97,35.16,36.19
108,1315002,"KURNOOL","JUPADUBUNGALOW","Tartur",78.31535,15.838149,32.6,35.55,32.76,33.74,35.21,35.12,36.36,36.55,35.92,35.81
109,1301016,"KURNOOL","KOWTHALAM","Madire",77.114729,15.834535,31.73,34.75,32.98,32.4,34.58,34.91,34.28,34.72,34.47,34.37
110,1302021,"KURNOOL","KOSIGI","Kalavalagundu",77.305947,15.833925,30.88,34.43,32.59,32.08,34.29,34.23,33.92,34.05,33.86,34.65
111,1314007,"KURNOOL","PAMULAPADU","Pamulapadu1",78.498923,15.830922,33.76,34.76,33.7,34.52,35.72,36.12,37.75,37.53,37.72,36.83
112,1303018,"KURNOOL","MANTRALAYAM","Malapalle",77.339749,15.823725,30.88,34.43,32.59,32.08,34.29,34.23,33.92,34.05,33.86,34.65
113,804015,"PRAKASAM","KURICHEDU","WestGangavaram",79.552664,15.819947,37.51,38.47,36.71,36.21,38.24,38.25,39.37,40.04,39.96,39.99
114,1390901,"KURNOOL","KURNOOL","Roja",78.033758,15.84484,32.2,35.14,32.81,33.55,35.03,35.4,36.14,35.83,35.31,36.15
115,1307005,"KURNOOL","KURNOOL","Ulchala",77.915586,15.819836,32.26,35.27,32.71,33.47,34.92,35.34,35.92,35.93,35.4,35.82
116,822005,"PRAKASAM","KARAMCHEDU","Kesavarappadu",80.246146,15.858897,39.06,40.05,39.21,39.66,39.38,40.54,41.62,41.68,42.06,42.73
117,1301015,"KURNOOL","KOWTHALAM","Sulakeri",77.123858,15.823858,31.73,34.75,32.98,32.4,34.58,34.91,34.28,34.72,34.47,34.37
118,805016,"PRAKASAM","DONAKONDA","KotcherlaKota",79.349078,15.825575,36.09,37.78,35.96,35.43,37.81,36.99,38.33,39.18,39.17,39.08
119,814012,"PRAKASAM","MUNDLAMURU","KhambhamPaduEast",79.92878,15.851071,38.41,39.28,38,37.76,39.05,39.63,40.68,41.09,41.55,41.96
120,1315008,"KURNOOL","JUPADUBUNGALOW","Tarigopula",78.4254,15.83338,33.13,35.37,32.79,34.04,35.31,35.3,36.76,36.74,36.77,35.83
121,813008,"PRAKASAM","DARSI","PothaVaram",79.668832,15.849953,37.71,38.65,36.8,36.49,38.45,38.63,39.74,40.46,40.42,40.91
122,1321005,"KURNOOL","YEMMIGANUR","Tsallakudlur",77.54292,15.824405,34.12,34.93,32.39,32.89,34.51,35.16,34.72,34.55,34.81,34.96
123,814009,"PRAKASAM","MUNDLAMURU","Thammaluru",79.835954,15.840652,38.12,39.06,37.36,37.08,38.74,39.22,40.28,40.77,40.91,41.66
124,1322003,"KURNOOL","PEDDAKADUBUR","Basaladoddi",77.289518,15.817978,30.88,34.43,32.59,32.08,34.29,34.23,33.92,34.05,33.86,34.65
125,1301020,"KURNOOL","KOWTHALAM","Lingaladinne",77.082671,15.824303,31.73,34.75,32.98,32.4,34.58,34.91,34.28,34.72,34.47,34.37
126,1390902,"KURNOOL","KURNOOL","KurnoolRural",78.033357,15.832907,32.2,35.14,32.81,33.55,35.03,35.4,36.14,35.83,35.31,36.15
127,1314005,"KURNOOL","PAMULAPADU","Kambalapalle",78.501724,15.839774,33.76,34.76,33.7,34.52,35.72,36.12,37.75,37.53,37.72,36.83
128,1321006,"KURNOOL","YEMMIGANUR","Divamdinne",77.581681,15.826179,34.11,34.88,32.42,33.23,34.47,35.53,35.26,34.87,35.17,34.87
129,805009,"PRAKASAM","DONAKONDA","Yerrabalem1",79.51199,15.839241,37.03,38.08,36.31,35.89,37.79,37.63,38.99,39.48,39.46,39.13
130,890904,"PRAKASAM","CHIRALA","Perala",80.357931,15.843271,38.74,39.35,38.85,39.1,39.44,40.23,42.36,43.2,43.05,41.8
131,816010,"PRAKASAM","ADDANKI","Bommanampadu",80.015406,15.841339,38.78,39.84,38.45,38.37,39.18,40.15,40.9,41.12,41.38,42.12
132,826004,"PRAKASAM","JANAKAVARAMPANGULU","Muppavaram",80.04282,15.841643,38.78,39.84,38.45,38.37,39.18,40.15,40.9,41.12,41.38,42.12
133,826007,"PRAKASAM","JANAKAVARAMPANGULU","Budavada",80.134745,15.840845,38.75,40.01,39.02,38.94,39.27,40.18,41.25,41.31,41.72,42.45
134,814014,"PRAKASAM","MUNDLAMURU","Peddaravipadu",79.857509,15.828913,38.71,39.68,38.04,37.75,39.11,39.95,40.67,41.05,41.23,41.98
135,890905,"PRAKASAM","PEDAARAVEEDU","Forest3",79.210704,15.848387,34.29,36.33,35.11,34.46,37.04,36.24,37.63,38.29,38.26,38.07
136,816011,"PRAKASAM","ADDANKI","AddankiPT",79.996691,15.801834,38.78,39.84,38.45,38.37,39.18,40.15,40.9,41.12,41.38,42.12
137,1322007,"KURNOOL","PEDDAKADUBUR","Kambaladinne",77.363985,15.794919,32.57,34.72,32.48,32.55,34.49,34.56,34.09,34.22,34.13,34.92
138,1302028,"KURNOOL","KOSIGI","Gowdegallu",77.217194,15.819593,30.9,34.52,32.83,32.01,34.3,34.46,33.97,34.16,34.16,34.35
139,1311009,"KURNOOL","ATMAKURKURNOOL","Nallakalva",78.586003,15.83096,32.79,33.57,33.45,33.93,35.17,35.93,37.45,37.13,37.12,36.75
140,1390903,"KURNOOL","KURNOOL","KurnoolMCorp.",78.050191,15.828149,32.32,34.89,32.72,33.48,35.08,35.32,36.15,35.97,35.16,36.19
141,822007,"PRAKASAM","KARAMCHEDU","KodavalivariPalem",80.265477,15.826242,38.84,40.24,39.39,39.53,39.29,40.38,41.48,42.05,41.91,42.75
142,1301024,"KURNOOL","KOWTHALAM","Urukunda",77.166085,15.806813,30.9,34.52,32.83,32.01,34.3,34.46,33.97,34.16,34.16,34.35
143,1318003,"KURNOOL","KALLUR","Peddapadu",77.968116,15.817779,32.2,35.14,32.81,33.55,35.03,35.4,36.14,35.83,35.31,36.15
144,1301021,"KURNOOL","KOWTHALAM","Agasaladinne",77.08686,15.812913,31.73,34.75,32.98,32.4,34.58,34.91,34.28,34.72,34.47,34.37
145,825005,"PRAKASAM","INKOLLU","Inkollu1",80.196214,15.825137,38.89,40.39,39.38,39.52,39.47,40.46,41.59,41.7,42.04,42.82
146,1302027,"KURNOOL","KOSIGI","Zumaladinne",77.197697,15.814139,30.9,34.52,32.83,32.01,34.3,34.46,33.97,34.16,34.16,34.35
147,805008,"PRAKASAM","DONAKONDA","VeeraVenkataPuram",79.490466,15.845387,37.03,38.08,36.31,35.89,37.79,37.63,38.99,39.48,39.46,39.13
148,805017,"PRAKASAM","DONAKONDA","Siddayapalem",79.327674,15.829806,36.09,37.78,35.96,35.43,37.81,36.99,38.33,39.18,39.17,39.08
149,1303019,"KURNOOL","MANTRALAYAM","Paramandoddi",77.315947,15.817848,30.88,34.43,32.59,32.08,34.29,34.23,33.92,34.05,33.86,34.65
150,814016,"PRAKASAM","MUNDLAMURU","Chintalapudi1",79.787291,15.839199,38.12,39.06,37.36,37.08,38.74,39.22,40.28,40.77,40.91,41.66
151,826006,"PRAKASAM","JANAKAVARAMPANGULU","Kotapadu1",80.100088,15.84409,38.75,40.01,39.02,38.94,39.27,40.18,41.25,41.31,41.72,42.45
152,1307016,"KURNOOL","KURNOOL","Devamada",78.106326,15.829164,32.32,34.89,32.72,33.48,35.08,35.32,36.15,35.97,35.16,36.19
153,813007,"PRAKASAM","DARSI","ThanamChinthala",79.652996,15.829331,37.71,38.65,36.8,36.49,38.45,38.63,39.74,40.46,40.42,40.91
154,823004,"PRAKASAM","CHIRALA","ChiralaRural",80.326517,15.825549,38.84,40.24,39.39,39.53,39.29,40.38,41.48,42.05,41.91,42.75
155,1314006,"KURNOOL","PAMULAPADU","Bhanumukkala",78.540222,15.814239,33.76,34.76,33.7,34.52,35.72,36.12,37.75,37.53,37.72,36.83
156,1390904,"KURNOOL","KALLUR","KALLUR1",78.016752,15.810387,32.2,35.14,32.81,33.55,35.03,35.4,36.14,35.83,35.31,36.15
157,806013,"PRAKASAM","PEDAARAVEEDU","PedaAraveedu",79.211289,15.822061,34.29,36.33,35.11,34.46,37.04,36.24,37.63,38.29,38.26,38.07
158,814013,"PRAKASAM","MUNDLAMURU","NuzellaPalle",79.899771,15.834039,38.71,39.68,38.04,37.75,39.11,39.95,40.67,41.05,41.23,41.98
159,1315010,"KURNOOL","JUPADUBUNGALOW","Parumanchala1",78.388642,15.795062,33.13,35.37,32.79,34.04,35.31,35.3,36.76,36.74,36.77,35.83
160,816008,"PRAKASAM","ADDANKI","Gopalapuram1",79.956213,15.844588,38.78,39.84,38.45,38.37,39.18,40.15,40.9,41.12,41.38,42.12
161,1308010,"KURNOOL","NANDIKOTKUR","Bollavaram1",78.242523,15.829542,32.71,35.34,33.07,33.71,35.39,35.39,36.38,36.53,35.5,36.21
162,1315009,"KURNOOL","JUPADUBUNGALOW","Lingapuram",78.389204,15.824712,33.13,35.37,32.79,34.04,35.31,35.3,36.76,36.74,36.77,35.83
163,1321004,"KURNOOL","YEMMIGANUR","Soganur",77.513432,15.811429,34.12,34.93,32.39,32.89,34.51,35.16,34.72,34.55,34.81,34.96
164,1322001,"KURNOOL","PEDDAKADUBUR","Peekalabetta",77.241313,15.81206,30.9,34.52,32.83,32.01,34.3,34.46,33.97,34.16,34.16,34.35
165,806015,"PRAKASAM","PEDAARAVEEDU","Kalanuthala",79.123596,15.808957,31.86,33.61,33.19,32.53,35.24,34.99,36.05,36.56,36.35,36.31
166,1316005,"KURNOOL","MIDTHUR","Veepanagandla",78.292936,15.816213,32.6,35.55,32.76,33.74,35.21,35.12,36.36,36.55,35.92,35.81
167,1321007,"KURNOOL","YEMMIGANUR","Enigabala",77.603909,15.799426,34.11,34.88,32.42,33.23,34.47,35.53,35.26,34.87,35.17,34.87
168,1322006,"KURNOOL","PEDDAKADUBUR","Chinnatumbalam",77.316543,15.789939,30.88,34.43,32.59,32.08,34.29,34.23,33.92,34.05,33.86,34.65
169,826005,"PRAKASAM","JANAKAVARAMPANGULU","Kondamur",80.065015,15.829324,38.75,40.01,39.02,38.94,39.27,40.18,41.25,41.31,41.72,42.45
170,807012,"PRAKASAM","DORNALA","ChinaManthanala",78.856552,15.837251,28.5,27.75,29.78,29.32,32.03,32.5,32.81,32.71,32.94,32.91
171,1304019,"KURNOOL","NANDAVARAM","Mugathi",77.4744,15.800731,34.12,34.93,32.39,32.89,34.51,35.16,34.72,34.55,34.81,34.96
172,1322008,"KURNOOL","PEDDAKADUBUR","Jalvadi",77.38744,15.80225,32.57,34.72,32.48,32.55,34.49,34.56,34.09,34.22,34.13,34.92
173,1301023,"KURNOOL","KOWTHALAM","Bantakunta",77.129633,15.80481,31.73,34.75,32.98,32.4,34.58,34.91,34.28,34.72,34.47,34.37
174,1322004,"KURNOOL","PEDDAKADUBUR","Hulikanvi",77.270902,15.799537,30.88,34.43,32.59,32.08,34.29,34.23,33.92,34.05,33.86,34.65
175,1321008,"KURNOOL","YEMMIGANUR","Garladinne1",77.574281,15.812121,34.11,34.88,32.42,33.23,34.47,35.53,35.26,34.87,35.17,34.87
176,805014,"PRAKASAM","DONAKONDA","Bhumanapalle",79.417003,15.826267,36.48,37.87,35.97,35.44,37.67,37.19,38.53,39.2,39.18,39.07
177,1308012,"KURNOOL","NANDIKOTKUR","Brahmanakotkur1",78.183447,15.811172,32.71,35.34,33.07,33.71,35.39,35.39,36.38,36.53,35.5,36.21
178,805010,"PRAKASAM","DONAKONDA","Vabbapuram",79.503078,15.829578,37.03,38.08,36.31,35.89,37.79,37.63,38.99,39.48,39.46,39.13
179,814017,"PRAKASAM","MUNDLAMURU","KellamPalle",79.722609,15.82183,37.71,38.65,36.8,36.49,38.45,38.63,39.74,40.46,40.42,40.91
180,806016,"PRAKASAM","PEDAARAVEEDU","Devarajugattu",79.245874,15.800912,34.29,36.33,35.11,34.46,37.04,36.24,37.63,38.29,38.26,38.07
181,1322002,"KURNOOL","PEDDAKADUBUR","Gavigatlu",77.218631,15.797981,30.9,34.52,32.83,32.01,34.3,34.46,33.97,34.16,34.16,34.35
182,1303020,"KURNOOL","MANTRALAYAM","Singarajanahalli",77.341388,15.806321,30.88,34.43,32.59,32.08,34.29,34.23,33.92,34.05,33.86,34.65
183,1322009,"KURNOOL","PEDDAKADUBUR","Kambadahal1",77.410904,15.800809,32.57,34.72,32.48,32.55,34.49,34.56,34.09,34.22,34.13,34.92
184,805015,"PRAKASAM","DONAKONDA","MallamPeta",79.371786,15.815091,36.48,37.87,35.97,35.44,37.67,37.19,38.53,39.2,39.18,39.07
185,814011,"PRAKASAM","MUNDLAMURU","BhatlaPalle",79.931598,15.835424,38.71,39.68,38.04,37.75,39.11,39.95,40.67,41.05,41.23,41.98
186,1308011,"KURNOOL","NANDIKOTKUR","Damagatla",78.232955,15.81157,32.71,35.34,33.07,33.71,35.39,35.39,36.38,36.53,35.5,36.21
187,1304018,"KURNOOL","NANDAVARAM","Dharmapuram",77.456834,15.807937,34.12,34.93,32.39,32.89,34.51,35.16,34.72,34.55,34.81,34.96
188,1306001,"KURNOOL","GUDURKURNOOL","Julakallu",77.769425,15.807661,32.59,34.49,32.08,33.31,34.67,35.22,35.64,35.47,35.23,35.57
189,813002,"PRAKASAM","DARSI","AbbayaPalem",79.596889,15.828731,37.51,38.47,36.71,36.21,38.24,38.25,39.37,40.04,39.96,39.99
190,1301022,"KURNOOL","KOWTHALAM","Dommaladinne",77.089543,15.80178,31.73,34.75,32.98,32.4,34.58,34.91,34.28,34.72,34.47,34.37
191,1321010,"KURNOOL","YEMMIGANUR","K.Thimmapuram",77.540852,15.804372,34.12,34.93,32.39,32.89,34.51,35.16,34.72,34.55,34.81,34.96
192,813010,"PRAKASAM","DARSI","ThimmayaPalem",79.67915,15.822582,37.71,38.65,36.8,36.49,38.45,38.63,39.74,40.46,40.42,40.91
193,1305008,"KURNOOL","CBELAGAL","Burandoddi",77.683935,15.794377,33.31,34.58,32.14,33.32,34.47,35.31,35.41,35,35.12,35.36
194,809010,"PRAKASAM","ADDANKI","NarasimhaPuram",79.951586,15.832872,38.78,39.84,38.45,38.37,39.18,40.15,40.9,41.12,41.38,42.12
195,1306005,"KURNOOL","GUDURKURNOOL","RegadiKhanapuram",77.838469,15.804165,32.59,34.49,32.08,33.31,34.67,35.22,35.64,35.47,35.23,35.57
196,1314008,"KURNOOL","PAMULAPADU","Mittakandala",78.469083,15.801321,33.76,34.76,33.7,34.52,35.72,36.12,37.75,37.53,37.72,36.83
197,1304006,"KURNOOL","KURNOOL","Joharapuram",78.063482,15.803339,32.32,34.89,32.72,33.48,35.08,35.32,36.15,35.97,35.16,36.19
198,1322005,"KURNOOL","PEDDAKADUBUR","Bapaladoddi",77.243943,15.796965,30.9,34.52,32.83,32.01,34.3,34.46,33.97,34.16,34.16,34.35
199,814025,"PRAKASAM","MUNDLAMURU","Vempadu1",79.867283,15.808801,38.71,39.68,38.04,37.75,39.11,39.95,40.67,41.05,41.23,41.98
200,805013,"PRAKASAM","DONAKONDA","RagamakkaPalle",79.432998,15.812914,36.48,37.87,35.97,35.44,37.67,37.19,38.53,39.2,39.18,39.07
201,805012,"PRAKASAM","DONAKONDA","IndlaCheruvu",79.460912,15.810517,37.03,38.08,36.31,35.89,37.79,37.63,38.99,39.48,39.46,39.13
202,1316007,"KURNOOL","MIDTHUR","Thimmapuram1",78.349467,15.795234,32.6,35.55,32.76,33.74,35.21,35.12,36.36,36.55,35.92,35.81
203,846001,"PRAKASAM","CHINAGANJAM","Santharavuru",80.253739,15.806282,38.84,40.24,39.39,39.53,39.29,40.38,41.48,42.05,41.91,42.75
204,1307025,"KURNOOL","KURNOOL","Rudravaram1",78.09761,15.784768,32.32,34.89,32.72,33.48,35.08,35.32,36.15,35.97,35.16,36.19
205,814015,"PRAKASAM","MUNDLAMURU","NadimpallivariKhandrika",79.799176,15.82004,38.12,39.06,37.36,37.08,38.74,39.22,40.28,40.77,40.91,41.66
206,1301028,"KURNOOL","KOWTHALAM","Veerladinne",77.103301,15.794828,31.73,34.75,32.98,32.4,34.58,34.91,34.28,34.72,34.47,34.37
207,805011,"PRAKASAM","DONAKONDA","NarasimhanayuniPalem",79.487775,15.819606,37.03,38.08,36.31,35.89,37.79,37.63,38.99,39.48,39.46,39.13
208,806014,"PRAKASAM","PEDAARAVEEDU","Sunkesula1",79.17232,15.803051,34.29,36.33,35.11,34.46,37.04,36.24,37.63,38.29,38.26,38.07
209,1301025,"KURNOOL","KOWTHALAM","Kamavaram",77.191091,15.774858,30.9,34.52,32.83,32.01,34.3,34.46,33.97,34.16,34.16,34.35
210,823000,"PRAKASAM","CHIRALA","ChiralaM",80.351954,15.824397,38.74,39.35,38.85,39.1,39.44,40.23,42.36,43.2,43.05,41.8
211,826008,"PRAKASAM","JANAKAVARAMPANGULU","JanakavaramPanguluru",80.101715,15.814468,38.75,40.01,39.02,38.94,39.27,40.18,41.25,41.31,41.72,42.45
212,1320002,"KURNOOL","GONEGANDLA","Alwala",77.6217,15.772572,34.11,34.88,32.42,33.23,34.47,35.53,35.26,34.87,35.17,34.87
213,816012,"PRAKASAM","ADDANKI","RamayapalemU",79.939583,15.807951,38.71,39.68,38.04,37.75,39.11,39.95,40.67,41.05,41.23,41.98
214,805024,"PRAKASAM","DONAKONDA","Gudipadu1",79.522342,15.788161,37.03,38.08,36.31,35.89,37.79,37.63,38.99,39.48,39.46,39.13
215,1305007,"KURNOOL","CBELAGAL","Brahmanadoddi",77.736073,15.779216,33.31,34.58,32.14,33.32,34.47,35.31,35.41,35,35.12,35.36
216,813004,"PRAKASAM","DARSI","Chandaluru",79.582758,15.800584,37.51,38.47,36.71,36.21,38.24,38.25,39.37,40.04,39.96,39.99
217,1301027,"KURNOOL","KOWTHALAM","Kowthalam1",77.131038,15.767784,31.73,34.75,32.98,32.4,34.58,34.91,34.28,34.72,34.47,34.37
218,824005,"PRAKASAM","VETAPALEM","KothaPetaRural",80.370874,15.797395,38.74,39.35,38.85,39.1,39.44,40.23,42.36,43.2,43.05,41.8
219,1306002,"KURNOOL","GUDURKURNOOL","Ponnakallu",77.779622,15.793659,32.59,34.49,32.08,33.31,34.67,35.22,35.64,35.47,35.23,35.57
220,1321009,"KURNOOL","YEMMIGANUR","Pesaladinne",77.574315,15.795449,34.11,34.88,32.42,33.23,34.47,35.53,35.26,34.87,35.17,34.87
221,1306006,"KURNOOL","GUDURKURNOOL","Gudur1",77.799975,15.767978,32.59,34.49,32.08,33.31,34.67,35.22,35.64,35.47,35.23,35.57
222,814024,"PRAKASAM","MUNDLAMURU","Mundlamuru1",79.823965,15.802009,38.12,39.06,37.36,37.08,38.74,39.22,40.28,40.77,40.91,41.66
223,826014,"PRAKASAM","JANAKAVARAMPANGULU","Chandalur",80.140624,15.792521,38.75,40.01,39.02,38.94,39.27,40.18,41.25,41.31,41.72,42.45
224,1316006,"KURNOOL","MIDTHUR","Byrapuram",78.326767,15.797479,32.6,35.55,32.76,33.74,35.21,35.12,36.36,36.55,35.92,35.81
225,805019,"PRAKASAM","DONAKONDA","Manginapudi1",79.398832,15.797482,36.48,37.87,35.97,35.44,37.67,37.19,38.53,39.2,39.18,39.07
226,814022,"PRAKASAM","MUNDLAMURU","Chinnavullagallu",79.748225,15.799293,37.71,38.65,36.8,36.49,38.45,38.63,39.74,40.46,40.42,40.91
227,1307018,"KURNOOL","KURNOOL","Gargeyapuram",78.139848,15.779834,32.32,34.89,32.72,33.48,35.08,35.32,36.15,35.97,35.16,36.19
228,1301026,"KURNOOL","KOWTHALAM","Echalahal",77.166606,15.786892,30.9,34.52,32.83,32.01,34.3,34.46,33.97,34.16,34.16,34.35
229,1301029,"KURNOOL","KOWTHALAM","Bapuram",77.089358,15.783357,31.73,34.75,32.98,32.4,34.58,34.91,34.28,34.72,34.47,34.37
230,1318002,"KURNOOL","KALLUR","A.Gokulapadu",77.945722,15.793197,32.26,35.27,32.71,33.47,34.92,35.34,35.92,35.93,35.4,35.82
231,814021,"PRAKASAM","MUNDLAMURU","Pedavullagallu",79.769587,15.801995,38.12,39.06,37.36,37.08,38.74,39.22,40.28,40.77,40.91,41.66
232,805023,"PRAKASAM","DONAKONDA","PeddannaPalem",79.49914,15.808144,37.03,38.08,36.31,35.89,37.79,37.63,38.99,39.48,39.46,39.13
233,1318001,"KURNOOL","KALLUR","Parla",77.892751,15.776523,32.26,35.27,32.71,33.47,34.92,35.34,35.92,35.93,35.4,35.82
234,1321003,"KURNOOL","YEMMIGANUR","Kalugotla1",77.516217,15.777079,34.12,34.93,32.39,32.89,34.51,35.16,34.72,34.55,34.81,34.96
235,1316001,"KURNOOL","MIDTHUR","Nagalooty",78.227233,15.790576,32.71,35.34,33.07,33.71,35.39,35.39,36.38,36.53,35.5,36.21
236,825006,"PRAKASAM","INKOLLU","GangaVaram",80.163166,15.814639,38.89,40.39,39.38,39.52,39.47,40.46,41.59,41.7,42.04,42.82
237,813001,"PRAKASAM","DARSI","Bandellapaya",79.612195,15.794627,37.51,38.47,36.71,36.21,38.24,38.25,39.37,40.04,39.96,39.99
238,809004,"PRAKASAM","MARKAPUR","Idupur",79.299235,15.788855,36.09,37.78,35.96,35.43,37.81,36.99,38.33,39.18,39.17,39.08
239,1390906,"KURNOOL","YEMMIGANUR","Yemmiganur1",77.479936,15.770975,34.12,34.93,32.39,32.89,34.51,35.16,34.72,34.55,34.81,34.96
240,813006,"PRAKASAM","DARSI","VenkatachalamPalle",79.633918,15.810884,37.51,38.47,36.71,36.21,38.24,38.25,39.37,40.04,39.96,39.99
241,808001,"PRAKASAM","ARDHAVEEDU","Velagalapaya",78.955619,15.782028,30.17,30.52,31.34,30.74,33.52,33.82,34.42,34.51,34.64,34.65
242,1316004,"KURNOOL","MIDTHUR","Midthur1",78.274525,15.772631,32.6,35.55,32.76,33.74,35.21,35.12,36.36,36.55,35.92,35.81
243,826010,"PRAKASAM","JANAKAVARAMPANGULU","Kasyapuram",80.030299,15.809055,38.78,39.84,38.45,38.37,39.18,40.15,40.9,41.12,41.38,42.12
244,814027,"PRAKASAM","MUNDLAMURU","Sankarapuram",79.902559,15.808434,38.71,39.68,38.04,37.75,39.11,39.95,40.67,41.05,41.23,41.98
245,1321011,"KURNOOL","YEMMIGANUR","Parlapalle",77.556217,15.774321,34.11,34.88,32.42,33.23,34.47,35.53,35.26,34.87,35.17,34.87
246,1301030,"KURNOOL","KOWTHALAM","Rowdur",77.071671,15.752732,31.73,34.75,32.98,32.4,34.58,34.91,34.28,34.72,34.47,34.37
247,890906,"PRAKASAM","MARKAPUR","Forest4",79.209887,15.767906,34.29,36.33,35.11,34.46,37.04,36.24,37.63,38.29,38.26,38.07
248,895901,"PRAKASAM","ADDANKI","AddankiNorthU",79.972131,15.812522,38.78,39.84,38.45,38.37,39.18,40.15,40.9,41.12,41.38,42.12
249,814026,"PRAKASAM","MUNDLAMURU","Polavaram1",79.875996,15.795892,38.71,39.68,38.04,37.75,39.11,39.95,40.67,41.05,41.23,41.98
250,814023,"PRAKASAM","MUNDLAMURU","Pasupugallu",79.790377,15.797182,38.12,39.06,37.36,37.08,38.74,39.22,40.28,40.77,40.91,41.66
251,826009,"PRAKASAM","JANAKAVARAMPANGULU","Reningavaram",80.049118,15.806442,38.78,39.84,38.45,38.37,39.18,40.15,40.9,41.12,41.38,42.12
252,1323014,"KURNOOL","ADONI","PeddaThumbalam",77.248511,15.764927,30.9,34.52,32.83,32.01,34.3,34.46,33.97,34.16,34.16,34.35
253,1322010,"KURNOOL","PEDDAKADUBUR","HissaraMurvari",77.415921,15.764127,32.57,34.72,32.48,32.55,34.49,34.56,34.09,34.22,34.13,34.92
254,1307021,"KURNOOL","KURNOOL","Pasupula1",78.073995,15.780922,32.32,34.89,32.72,33.48,35.08,35.32,36.15,35.97,35.16,36.19
255,1318005,"KURNOOL","KALLUR","Pandipadu",78.008292,15.790716,32.2,35.14,32.81,33.55,35.03,35.4,36.14,35.83,35.31,36.15
256,813011,"PRAKASAM","DARSI","Darsi1",79.676677,15.775791,37.71,38.65,36.8,36.49,38.45,38.63,39.74,40.46,40.42,40.91
257,1307019,"KURNOOL","KURNOOL","Diguvapadu",78.180621,15.782299,32.71,35.34,33.07,33.71,35.39,35.39,36.38,36.53,35.5,36.21
258,806012,"PRAKASAM","PEDAARAVEEDU","S.KothaPalle",79.241995,15.806835,34.29,36.33,35.11,34.46,37.04,36.24,37.63,38.29,38.26,38.07
259,1318006,"KURNOOL","KALLUR","Laxmipuram",77.985577,15.759232,32.2,35.14,32.81,33.55,35.03,35.4,36.14,35.83,35.31,36.15
260,1318007,"KURNOOL","KALLUR","Salkapuram",77.956505,15.777061,32.2,35.14,32.81,33.55,35.03,35.4,36.14,35.83,35.31,36.15
261,824001,"PRAKASAM","VETAPALEM","Vetapalem1",80.302711,15.788134,38.84,40.24,39.39,39.53,39.29,40.38,41.48,42.05,41.91,42.75
262,826011,"PRAKASAM","JANAKAVARAMPANGULU","Alavalapadu1",80.064837,15.78951,38.75,40.01,39.02,38.94,39.27,40.18,41.25,41.31,41.72,42.45
263,814018,"PRAKASAM","MUNDLAMURU","BasavaPuram",79.71287,15.801226,37.71,38.65,36.8,36.49,38.45,38.63,39.74,40.46,40.42,40.91
264,814019,"PRAKASAM","MUNDLAMURU","Brundavanam",79.687545,15.79045,37.71,38.65,36.8,36.49,38.45,38.63,39.74,40.46,40.42,40.91
265,1322013,"KURNOOL","PEDDAKADUBUR","Muchigeri",77.300824,15.767574,30.88,34.43,32.59,32.08,34.29,34.23,33.92,34.05,33.86,34.65
266,1314009,"KURNOOL","PAMULAPADU","Vempenta",78.518422,15.775165,33.76,34.76,33.7,34.52,35.72,36.12,37.75,37.53,37.72,36.83
267,816015,"PRAKASAM","ADDANKI","AddankiSouthU",79.971153,15.804479,38.78,39.84,38.45,38.37,39.18,40.15,40.9,41.12,41.38,42.12
268,825008,"PRAKASAM","INKOLLU","Bhimavaram1",80.211824,15.783483,38.89,40.39,39.38,39.52,39.47,40.46,41.59,41.7,42.04,42.82
269,1307023,"KURNOOL","KURNOOL","Dinnedevarapadu1",78.034817,15.76846,32.2,35.14,32.81,33.55,35.03,35.4,36.14,35.83,35.31,36.15
270,813005,"PRAKASAM","DARSI","Chalivendra",79.633136,15.791928,37.51,38.47,36.71,36.21,38.24,38.25,39.37,40.04,39.96,39.99
271,1320001,"KURNOOL","GONEGANDLA","PeddaMarriveedu",77.582034,15.75927,34.11,34.88,32.42,33.23,34.47,35.53,35.26,34.87,35.17,34.87
272,805022,"PRAKASAM","DONAKONDA","LakshmiNarayanaPuram",79.482861,15.787315,37.03,38.08,36.31,35.89,37.79,37.63,38.99,39.48,39.46,39.13
273,1315011,"KURNOOL","JUPADUBUNGALOW","Thudicherla",78.442258,15.774495,33.13,35.37,32.79,34.04,35.31,35.3,36.76,36.74,36.77,35.83
274,1316008,"KURNOOL","MIDTHUR","Cherakucherla",78.322279,15.76949,32.6,35.55,32.76,33.74,35.21,35.12,36.36,36.55,35.92,35.81
275,845017,"PRAKASAM","NAGULUPPALAPADU","Thimmasamudram",80.24576,15.780671,38.89,40.39,39.38,39.52,39.47,40.46,41.59,41.7,42.04,42.82
276,1322012,"KURNOOL","PEDDAKADUBUR","Kallukunta",77.327994,15.75885,30.88,34.43,32.59,32.08,34.29,34.23,33.92,34.05,33.86,34.65
277,825007,"PRAKASAM","INKOLLU","Koniki",80.181696,15.782431,38.89,40.39,39.38,39.52,39.47,40.46,41.59,41.7,42.04,42.82
278,890907,"PRAKASAM","GIDDALURU","Forest5",78.822277,15.399135,31.95,31.3,32.76,31.89,33.79,33.4,34.93,35.22,34.78,34.68
279,1306008,"KURNOOL","GUDURKURNOOL","Gudipadu2",77.848846,15.759482,32.59,34.49,32.08,33.31,34.67,35.22,35.64,35.47,35.23,35.57
280,1322011,"KURNOOL","PEDDAKADUBUR","PeddaKadubur1",77.356326,15.740405,32.24,34.36,30.45,31.78,33.85,34.37,33.61,33.72,33.79,34.45
281,826012,"PRAKASAM","JANAKAVARAMPANGULU","ThurpuThakkellaPadu",80.084493,15.784841,38.75,40.01,39.02,38.94,39.27,40.18,41.25,41.31,41.72,42.45
282,1320003,"KURNOOL","GONEGANDLA","PeddaNelatur",77.667972,15.751353,33.31,34.58,32.14,33.32,34.47,35.31,35.41,35,35.12,35.36
283,1381001,"KURNOOL","YEMMIGANUR","YemmiganurM",77.480039,15.768969,34.12,34.93,32.39,32.89,34.51,35.16,34.72,34.55,34.81,34.96
284,805018,"PRAKASAM","DONAKONDA","Ananthavaram1",79.36213,15.779457,36.48,37.87,35.97,35.44,37.67,37.19,38.53,39.2,39.18,39.07
285,814028,"PRAKASAM","MUNDLAMURU","Avisanavaripalem",79.904353,15.789974,38.71,39.68,38.04,37.75,39.11,39.95,40.67,41.05,41.23,41.98
286,809001,"PRAKASAM","MARKAPUR","JammanaPalle",79.199674,15.780173,34.29,36.33,35.11,34.46,37.04,36.24,37.63,38.29,38.26,38.07
287,1319001,"KURNOOL","KODUMUR","Pulakurthy",77.709792,15.742056,32.71,34.1,31.28,32.26,34.17,34.69,34.53,34.36,34.4,34.52
288,824004,"PRAKASAM","VETAPALEM","NayaniPalliRural",80.33372,15.769634,38.84,40.24,39.39,39.53,39.29,40.38,41.48,42.05,41.91,42.75
289,805020,"PRAKASAM","DONAKONDA","PochamakkaPalle",79.428151,15.785171,36.48,37.87,35.97,35.44,37.67,37.19,38.53,39.2,39.18,39.07
290,1316003,"KURNOOL","MIDTHUR","Kadumur",78.227641,15.763602,32.71,35.34,33.07,33.71,35.39,35.39,36.38,36.53,35.5,36.21
291,1321001,"KURNOOL","YEMMIGANUR","Sardarpuram",77.448179,15.764589,32.57,34.72,32.48,32.55,34.49,34.56,34.09,34.22,34.13,34.92
292,1307020,"KURNOOL","KURNOOL","Noothanapalle",78.096237,15.769526,32.32,34.89,32.72,33.48,35.08,35.32,36.15,35.97,35.16,36.19
293,809015,"PRAKASAM","MARKAPUR","Kolabhimunipadu",79.18284,15.763369,34.29,36.33,35.11,34.46,37.04,36.24,37.63,38.29,38.26,38.07
294,1307024,"KURNOOL","KURNOOL","B.Thandrapadu",78.059094,15.752542,32.32,34.89,32.72,33.48,35.08,35.32,36.15,35.97,35.16,36.19
295,826013,"PRAKASAM","JANAKAVARAMPANGULU","ThurpuKopperaPadu",80.103354,15.779232,38.75,40.01,39.02,38.94,39.27,40.18,41.25,41.31,41.72,42.45
296,814020,"PRAKASAM","MUNDLAMURU","Pulipadu",79.710334,15.784292,37.71,38.65,36.8,36.49,38.45,38.63,39.74,40.46,40.42,40.91
297,1322014,"KURNOOL","PEDDAKADUBUR","Nowlekal",77.280764,15.737529,30.83,34.17,30.61,31.53,33.71,34.39,33.49,33.74,33.81,34.19
298,805021,"PRAKASAM","DONAKONDA","PadamatiVenkataPuram",79.457374,15.776713,37.03,38.08,36.31,35.89,37.79,37.63,38.99,39.48,39.46,39.13
299,1323888,"KURNOOL","VELGODE","Forest6",78.705013,15.724935,28.6,27.34,30.31,30.68,31.97,32.45,33.47,33.46,33.24,33.14
300,1316002,"KURNOOL","MIDTHUR","Masapeta",78.187462,15.759089,32.71,35.34,33.07,33.71,35.39,35.39,36.38,36.53,35.5,36.21
301,809006,"PRAKASAM","MARKAPUR","GajjalaKonda",79.397307,15.757964,36.48,37.87,35.97,35.44,37.67,37.19,38.53,39.2,39.18,39.07
302,1314010,"KURNOOL","PAMULAPADU","Maddur1",78.486458,15.750469,33.76,34.76,33.7,34.52,35.72,36.12,37.75,37.53,37.72,36.83
303,816014,"PRAKASAM","ADDANKI","Kotikalapudi",79.94884,15.773547,38.71,39.68,38.04,37.75,39.11,39.95,40.67,41.05,41.23,41.98
304,827005,"PRAKASAM","KORISAPADU","Pichikalagudipadu",80.045974,15.775886,38.78,39.84,38.45,38.37,39.18,40.15,40.9,41.12,41.38,42.12
305,809002,"PRAKASAM","MARKAPUR","NikaramPalle",79.228507,15.772791,34.29,36.33,35.11,34.46,37.04,36.24,37.63,38.29,38.26,38.07
306,1301034,"KURNOOL","KOWTHALAM","Yerigiri",77.196664,15.741184,31.43,33.97,31.19,31.55,33.92,34.61,33.63,34.2,34.04,34.16
307,1322015,"KURNOOL","PEDDAKADUBUR","Myakadona",77.299608,15.737709,30.83,34.17,30.61,31.53,33.71,34.39,33.49,33.74,33.81,34.19
308,1321013,"KURNOOL","YEMMIGANUR","Kadimetla",77.530778,15.735522,33.63,34.61,30.55,32.05,34.13,34.67,34.25,34.05,34.08,34.69
309,1318008,"KURNOOL","KALLUR","K.Markapuram",77.928095,15.749917,32.56,35.61,32.51,33.24,34.63,35.25,35.74,36.03,35.24,35.59
310,816013,"PRAKASAM","ADDANKI","Kunkupadu1",79.92361,15.768614,38.71,39.68,38.04,37.75,39.11,39.95,40.67,41.05,41.23,41.98
311,813013,"PRAKASAM","DARSI","LankojanaPalle",79.651219,15.761419,37.71,38.65,36.8,36.49,38.45,38.63,39.74,40.46,40.42,40.91
312,815003,"PRAKASAM","THALLUR","Vithalapuram",79.864233,15.768723,38.71,39.68,38.04,37.75,39.11,39.95,40.67,41.05,41.23,41.98
313,813014,"PRAKASAM","DARSI","JammigumpalaK.S.Palem",79.572429,15.768662,37.51,38.47,36.71,36.21,38.24,38.25,39.37,40.04,39.96,39.99
314,809009,"PRAKASAM","MARKAPUR","MarkapurRural",79.283038,15.740407,36.52,37.37,35.71,35.2,37.47,36.91,38.05,38.96,38.72,38.72
315,815002,"PRAKASAM","THALLUR","Mannepalle",79.8368,15.757339,38.12,39.06,37.36,37.08,38.74,39.22,40.28,40.77,40.91,41.66
316,813025,"PRAKASAM","DARSI","CheruvuKommaPalem",79.775275,15.770083,38.12,39.06,37.36,37.08,38.74,39.22,40.28,40.77,40.91,41.66
317,1306010,"KURNOOL","GUDURKURNOOL","Kuruvanagalapuram",77.900714,15.751334,32.26,35.27,32.71,33.47,34.92,35.34,35.92,35.93,35.4,35.82
318,813027,"PRAKASAM","DARSI","PothaKamuru",79.765239,15.727802,38.2,38.97,37.29,37.12,38.59,39.58,39.96,40.53,40.55,41.29
319,809003,"PRAKASAM","MARKAPUR","PedaNagulavaram",79.256812,15.765567,36.09,37.78,35.96,35.43,37.81,36.99,38.33,39.18,39.17,39.08
320,815005,"PRAKASAM","THALLUR","Tallur",79.882653,15.741139,38.71,39.6,37.74,37.71,39.03,40.45,40.43,40.92,40.9,41.71
321,809005,"PRAKASAM","MARKAPUR","PedaYachavaram",79.329709,15.749087,36.52,37.37,35.71,35.2,37.47,36.91,38.05,38.96,38.72,38.72
322,808002,"PRAKASAM","ARDHAVEEDU","Gannepalle",78.99049,15.726612,31.61,32.4,32.98,31.82,34.87,34.55,35.37,35.64,35.82,35.86
323,813023,"PRAKASAM","DARSI","EastVeerayaPalem",79.727875,15.752946,37.71,38.65,36.8,36.49,38.45,38.63,39.74,40.46,40.42,40.91
324,815004,"PRAKASAM","THALLUR","Malkapuram",79.902345,15.758572,38.71,39.68,38.04,37.75,39.11,39.95,40.67,41.05,41.23,41.98
325,1321014,"KURNOOL","YEMMIGANUR","Gudikal",77.47364,15.740915,33.63,34.61,30.55,32.05,34.13,34.67,34.25,34.05,34.08,34.69
326,813024,"PRAKASAM","DARSI","MohiddinPuram",79.750506,15.760093,38.12,39.06,37.36,37.08,38.74,39.22,40.28,40.77,40.91,41.66
327,1301031,"KURNOOL","KOWTHALAM","Upparahal",77.103817,15.729906,32.68,33.96,31.94,32,34.25,34.71,34.1,34.47,34.41,34.19
328,1316010,"KURNOOL","MIDTHUR","Rollapadu",78.353398,15.741981,32.91,35.58,33.09,34.07,35.42,35.7,36.7,36.85,37.02,35.82
329,805028,"PRAKASAM","DONAKONDA","KalavalaPalle",79.435834,15.753614,36.48,37.87,35.97,35.44,37.67,37.19,38.53,39.2,39.18,39.07
330,846002,"PRAKASAM","CHINAGANJAM","Gonasapudi",80.221438,15.757652,38.89,40.39,39.38,39.52,39.47,40.46,41.59,41.7,42.04,42.82
331,1316009,"KURNOOL","MIDTHUR","Sunkesula2",78.313465,15.739169,32.4,35.37,32.77,33.52,35.17,35.37,36.12,36.18,35.75,35.53
332,1320004,"KURNOOL","GONEGANDLA","Kulumala",77.627679,15.737612,33.66,34.42,30.92,32.16,34.17,34.77,34.62,34.32,34.25,34.67
333,805026,"PRAKASAM","DONAKONDA","Vaddipadu",79.493462,15.753136,37.03,38.08,36.31,35.89,37.79,37.63,38.99,39.48,39.46,39.13
334,1317003,"KURNOOL","ORVAKAL","Kethavaram",78.160772,15.737921,32.09,34.74,32.48,33.14,34.96,35.06,35.8,35.77,34.98,35.54
335,824002,"PRAKASAM","VETAPALEM","PandillaPalle",80.276372,15.75858,38.84,40.24,39.39,39.53,39.29,40.38,41.48,42.05,41.91,42.75
336,1314011,"KURNOOL","PAMULAPADU","Vanala",78.443397,15.74056,32.91,35.58,33.09,34.07,35.42,35.7,36.7,36.85,37.02,35.82
337,1321012,"KURNOOL","YEMMIGANUR","Ralladoddi",77.565552,15.728735,33.66,34.42,30.92,32.16,34.17,34.77,34.62,34.32,34.25,34.67
338,1301033,"KURNOOL","KOWTHALAM","Badinehal",77.154571,15.715901,31.43,33.97,31.19,31.55,33.92,34.61,33.63,34.2,34.04,34.16
339,1323013,"KURNOOL","ADONI","Kuppagal",77.233874,15.731498,31.43,33.97,31.19,31.55,33.92,34.61,33.63,34.2,34.04,34.16
340,1316011,"KURNOOL","MIDTHUR","Alaganur",78.39306,15.734915,32.91,35.58,33.09,34.07,35.42,35.7,36.7,36.85,37.02,35.82
341,809016,"PRAKASAM","MARKAPUR","Akkacheruvu",79.1683,15.752623,34.29,36.33,35.11,34.46,37.04,36.24,37.63,38.29,38.26,38.07
342,813012,"PRAKASAM","DARSI","BalaPuram",79.629504,15.753052,37.51,38.47,36.71,36.21,38.24,38.25,39.37,40.04,39.96,39.99
343,815001,"PRAKASAM","THALLUR","Dosakayalapadu",79.812634,15.745222,38.2,38.97,37.29,37.12,38.59,39.58,39.96,40.53,40.55,41.29
344,1313004,"KURNOOL","VELGODE","Gunthakandala",78.517602,15.746697,33.51,35.18,34.01,34.75,35.93,36.23,37.83,37.97,38.16,37.2
345,825009,"PRAKASAM","INKOLLU","Duddukur",80.165322,15.747534,39.01,40.49,39.35,39.18,39.41,40.5,41.41,41.81,41.74,42.26
346,824003,"PRAKASAM","VETAPALEM","PullariPalem",80.306569,15.74292,38.65,39.54,38.75,38.69,39.62,40.05,41.94,43.07,41.82,41.48
347,1319004,"KURNOOL","KODUMUR","Pyalakurthy",77.826322,15.72533,32.54,34.4,31.81,32.69,34.34,34.91,35.03,35.19,34.97,34.79
348,827006,"PRAKASAM","KORISAPADU","Ravinuthala1",80.085124,15.746008,39.18,40.46,39.09,38.94,39.44,40.37,41.34,41.41,41.59,42.18
349,1317002,"KURNOOL","ORVAKAL","Puricherla",78.130952,15.724961,31.8,34.44,32.14,32.96,34.53,34.88,35.55,35.41,34.66,35.58
350,1318011,"KURNOOL","KALLUR","Dupadu1",78.009823,15.739539,32.09,35.2,32.42,33.23,34.59,35.15,35.75,35.78,34.87,35.78
351,1320005,"KURNOOL","GONEGANDLA","Gonegandla1",77.589488,15.714842,33.66,34.42,30.92,32.16,34.17,34.77,34.62,34.32,34.25,34.67
352,1322016,"KURNOOL","PEDDAKADUBUR","ChinnaKadubur",77.31755,15.725831,30.83,34.17,30.61,31.53,33.71,34.39,33.49,33.74,33.81,34.19
353,1321017,"KURNOOL","YEMMIGANUR","Banavasi1",77.404384,15.726148,32.24,34.36,30.45,31.78,33.85,34.37,33.61,33.72,33.79,34.45
354,816016,"PRAKASAM","ADDANKI","ManiKeswaram",79.977506,15.753442,38.78,39.84,38.45,38.37,39.18,40.15,40.9,41.12,41.38,42.12
355,845016,"PRAKASAM","NAGULUPPALAPADU","MaddiralaMuppalla",80.198035,15.749338,39.01,40.49,39.35,39.18,39.41,40.5,41.41,41.81,41.74,42.26
356,809014,"PRAKASAM","MARKAPUR","VemulaKota",79.232845,15.742898,34.85,36.1,35.01,34.4,36.73,36.2,37.24,38.02,37.92,37.94
357,1316015,"KURNOOL","MIDTHUR","Devanur",78.255562,15.723418,32.4,35.37,32.77,33.52,35.17,35.37,36.12,36.18,35.75,35.53
358,1321016,"KURNOOL","YEMMIGANUR","Kandanathi",77.454596,15.700254,33.63,34.61,30.55,32.05,34.13,34.67,34.25,34.05,34.08,34.69
359,1323043,"KURNOOL","ADONI","Basarakodu",77.257679,15.723198,30.83,34.17,30.61,31.53,33.71,34.39,33.49,33.74,33.81,34.19
360,826015,"PRAKASAM","JANAKAVARAMPANGULU","NuzendlaPalle",80.132868,15.755667,38.75,40.01,39.02,38.94,39.27,40.18,41.25,41.31,41.72,42.45
361,813016,"PRAKASAM","DARSI","Bandiveligandla",79.572773,15.739713,37.92,38.49,36.73,36.63,38.39,38.15,39.47,40.15,40.13,39.93
362,1306009,"KURNOOL","GUDURKURNOOL","Penchikalapadu",77.871325,15.729939,32.56,35.61,32.51,33.24,34.63,35.25,35.74,36.03,35.24,35.59
363,827004,"PRAKASAM","KORISAPADU","Korisapadu1",80.045241,15.748985,39.11,40.31,38.33,38.41,39.33,40.4,40.87,41.13,41.25,41.88
364,813017,"PRAKASAM","DARSI","YerrobanaPalle",79.608598,15.750365,37.51,38.47,36.71,36.21,38.24,38.25,39.37,40.04,39.96,39.99
365,1316016,"KURNOOL","MIDTHUR","Chowtakur1",78.224322,15.716936,32.09,34.74,32.48,33.14,34.96,35.06,35.8,35.77,34.98,35.54
366,846004,"PRAKASAM","CHINAGANJAM","Kadavakuduru1",80.249817,15.737458,39.01,40.49,39.35,39.18,39.41,40.5,41.41,41.81,41.74,42.26
367,1316017,"KURNOOL","MIDTHUR","Bannur1",78.204854,15.734088,32.09,34.74,32.48,33.14,34.96,35.06,35.8,35.77,34.98,35.54
368,1306007,"KURNOOL","GUDURKURNOOL","Chanugondla",77.770354,15.720825,32.54,34.4,31.81,32.69,34.34,34.91,35.03,35.19,34.97,34.79
369,1317001,"KURNOOL","ORVAKAL","Nannur1",78.080202,15.714572,31.8,34.44,32.14,32.96,34.53,34.88,35.55,35.41,34.66,35.58
370,813015,"PRAKASAM","DARSI","BukkaPuram",79.554009,15.749785,37.92,38.49,36.73,36.63,38.39,38.15,39.47,40.15,40.13,39.93
371,1306011,"KURNOOL","GUDURKURNOOL","Budidapadu",77.903269,15.727235,32.56,35.61,32.51,33.24,34.63,35.25,35.74,36.03,35.24,35.59
372,805027,"PRAKASAM","DONAKONDA","Sangapuram",79.468323,15.745562,37.2,37.83,36.44,36.1,37.98,37.61,39.04,39.63,39.66,39.48
373,805025,"PRAKASAM","DONAKONDA","Aravallipadu",79.521797,15.74067,37.2,37.83,36.44,36.1,37.98,37.61,39.04,39.63,39.66,39.48
374,1318009,"KURNOOL","KALLUR","Bastipadu",77.959574,15.714198,32.09,35.2,32.42,33.23,34.59,35.15,35.75,35.78,34.87,35.78
375,1313005,"KURNOOL","VELGODE","Velgode1",78.580756,15.715785,32.25,32.86,33.28,33.84,34.96,35.65,37.13,37.11,37,36.78
376,813019,"PRAKASAM","DARSI","EastVenkataPuram",79.649865,15.747668,37.92,38.49,36.73,36.63,38.39,38.15,39.47,40.15,40.13,39.93
377,1321015,"KURNOOL","YEMMIGANUR","Kadivella",77.491856,15.687299,33.63,34.61,30.55,32.05,34.13,34.67,34.25,34.05,34.08,34.69
378,816017,"PRAKASAM","ADDANKI","Nannurupadu",79.944426,15.747688,38.71,39.6,37.74,37.71,39.03,40.45,40.43,40.92,40.9,41.71
379,1301035,"KURNOOL","KOWTHALAM","Thovi",77.196772,15.708303,31.43,33.97,31.19,31.55,33.92,34.61,33.63,34.2,34.04,34.16
380,827002,"PRAKASAM","KORISAPADU","BodduvaniPalem",80.005988,15.720876,39.11,40.31,38.33,38.41,39.33,40.4,40.87,41.13,41.25,41.88
381,1318010,"KURNOOL","KALLUR","PeddaTekur",77.997442,15.725101,32.09,35.2,32.42,33.23,34.59,35.15,35.75,35.78,34.87,35.78
382,1318012,"KURNOOL","KALLUR","Thadakanapalle",78.032597,15.717002,32.09,35.2,32.42,33.23,34.59,35.15,35.75,35.78,34.87,35.78
383,810006,"PRAKASAM","TARLAPADU","Pothalapadu",79.380852,15.732208,36.8,37.55,35.92,35.56,37.67,37.19,38.43,39.27,39.12,39.12
384,816018,"PRAKASAM","ADDANKI","Modepalle",79.919065,15.724771,38.71,39.6,37.74,37.71,39.03,40.45,40.43,40.92,40.9,41.71
385,813022,"PRAKASAM","DARSI","EastChoutapalem",79.69337,15.735565,38.06,38.81,36.84,36.87,38.48,38.69,39.6,40.36,40.34,40.67
386,1323012,"KURNOOL","ADONI","Pandavagallu",77.237179,15.706783,31.43,33.97,31.19,31.55,33.92,34.61,33.63,34.2,34.04,34.16
387,1316014,"KURNOOL","MIDTHUR","Chintalapalle",78.285951,15.712628,32.4,35.37,32.77,33.52,35.17,35.37,36.12,36.18,35.75,35.53
388,809018,"PRAKASAM","MARKAPUR","Chintakunta1",79.201088,15.721015,34.85,36.1,35.01,34.4,36.73,36.2,37.24,38.02,37.92,37.94
389,1320006,"KURNOOL","GONEGANDLA","HandriKhairawadi",77.65206,15.71337,32.71,34.1,31.28,32.26,34.17,34.69,34.53,34.36,34.4,34.52
390,1323018,"KURNOOL","ADONI","Mantriki",77.299668,15.70451,30.83,34.17,30.61,31.53,33.71,34.39,33.49,33.74,33.81,34.19
391,814029,"PRAKASAM","MUNDLAMURU","SinganaPalem",79.803564,15.740276,38.2,38.97,37.29,37.12,38.59,39.58,39.96,40.53,40.55,41.29
392,890908,"PRAKASAM","MARKAPUR","MarkapurM",79.269042,15.736484,36.52,37.37,35.71,35.2,37.47,36.91,38.05,38.96,38.72,38.72
393,813020,"PRAKASAM","DARSI","RamachandraPuram",79.650317,15.728237,38.06,38.81,36.84,36.87,38.48,38.69,39.6,40.36,40.34,40.67
394,1321018,"KURNOOL","YEMMIGANUR","Malakapuram",77.367215,15.707214,32.24,34.36,30.45,31.78,33.85,34.37,33.61,33.72,33.79,34.45
395,1313003,"KURNOOL","VELGODE","Abdullapuram",78.523312,15.72026,33.51,35.18,34.01,34.75,35.93,36.23,37.83,37.97,38.16,37.2
396,1323011,"KURNOOL","ADONI","Ganekal1",77.222452,15.692952,31.43,33.97,31.19,31.55,33.92,34.61,33.63,34.2,34.04,34.16
397,827001,"PRAKASAM","KORISAPADU","Anamanamur",79.975727,15.738734,39.11,40.31,38.33,38.41,39.33,40.4,40.87,41.13,41.25,41.88
398,1323019,"KURNOOL","ADONI","Dayyalaguddam",77.328651,15.707006,30.83,34.17,30.61,31.53,33.71,34.39,33.49,33.74,33.81,34.19
399,1313001,"KURNOOL","VELGODE","Regadigudur",78.467954,15.714829,33.51,35.18,34.01,34.75,35.93,36.23,37.83,37.97,38.16,37.2
400,1301032,"KURNOOL","KOWTHALAM","Kuntanahal",77.10921,15.698455,32.68,33.96,31.94,32,34.25,34.71,34.1,34.47,34.41,34.19
401,811001,"PRAKASAM","KONAKANAMITLA","GanivaniPadu",79.454072,15.733522,37.2,37.83,36.44,36.1,37.98,37.61,39.04,39.63,39.66,39.48
402,827008,"PRAKASAM","KORISAPADU","PamidiPadu",80.108592,15.714714,39.18,40.46,39.09,38.94,39.44,40.37,41.34,41.41,41.59,42.18
403,809017,"PRAKASAM","MARKAPUR","Gottipadia",79.147258,15.718782,33.15,34.39,34.18,33.21,35.88,35.46,36.33,37,36.95,36.95
404,1319002,"KURNOOL","KODUMUR","Varkur",77.732588,15.701651,32.71,34.1,31.28,32.26,34.17,34.69,34.53,34.36,34.4,34.52
405,813026,"PRAKASAM","DARSI","SeethaSagaram",79.79044,15.738902,38.2,38.97,37.29,37.12,38.59,39.58,39.96,40.53,40.55,41.29
406,1318016,"KURNOOL","KALLUR","Pusulur",77.925021,15.697388,32.56,35.61,32.51,33.24,34.63,35.25,35.74,36.03,35.24,35.59
407,890909,"PRAKASAM","MARKAPUR","Forest7",79.153788,15.712204,34.85,36.1,35.01,34.4,36.73,36.2,37.24,38.02,37.92,37.94
408,813018,"PRAKASAM","DARSI","GaneswaraPuram",79.624676,15.737215,37.92,38.49,36.73,36.63,38.39,38.15,39.47,40.15,40.13,39.93
409,1323016,"KURNOOL","ADONI","Jalibenchi",77.261685,15.692707,30.83,34.17,30.61,31.53,33.71,34.39,33.49,33.74,33.81,34.19
410,811002,"PRAKASAM","KONAKANAMITLA","Vagemadugu",79.472222,15.722547,37.2,37.83,36.44,36.1,37.98,37.61,39.04,39.63,39.66,39.48
411,1320013,"KURNOOL","GONEGANDLA","Iranbanda",77.591778,15.68988,33.66,34.42,30.92,32.16,34.17,34.77,34.62,34.32,34.25,34.67
412,1332004,"KURNOOL","GADIVEMULA","Korrapolur",78.419128,15.709596,32.91,35.58,33.09,34.07,35.42,35.7,36.7,36.85,37.02,35.82
413,846005,"PRAKASAM","CHINAGANJAM","MotuPalle",80.280364,15.715598,38.65,39.54,38.75,38.69,39.62,40.05,41.94,43.07,41.82,41.48
414,815006,"PRAKASAM","THALLUR","Madhavaram1",79.849315,15.728327,38.2,38.97,37.29,37.12,38.59,39.58,39.96,40.53,40.55,41.29
415,1317004,"KURNOOL","ORVAKAL","Kannamadakala",78.185255,15.706607,32.09,34.74,32.48,33.14,34.96,35.06,35.8,35.77,34.98,35.54
416,1321019,"KURNOOL","YEMMIGANUR","Kotekal",77.391337,15.687185,32.24,34.36,30.45,31.78,33.85,34.37,33.61,33.72,33.79,34.45
417,812001,"PRAKASAM","PODILI","Egalapadu",79.595794,15.717919,37.92,38.49,36.73,36.63,38.39,38.15,39.47,40.15,40.13,39.93
418,840017,"PRAKASAM","CHINAGANJAM","ChinthagumPalle",80.221264,15.734637,39.01,40.49,39.35,39.18,39.41,40.5,41.41,41.81,41.74,42.26
419,1323017,"KURNOOL","ADONI","Doddanakeri",77.281173,15.690385,30.83,34.17,30.61,31.53,33.71,34.39,33.49,33.74,33.81,34.19
420,1320007,"KURNOOL","GONEGANDLA","Vemugodu",77.684431,15.69949,32.71,34.1,31.28,32.26,34.17,34.69,34.53,34.36,34.4,34.52
421,816019,"PRAKASAM","ADDANKI","DhenuvaKonda",79.943068,15.713189,38.71,39.6,37.74,37.71,39.03,40.45,40.43,40.92,40.9,41.71
422,812002,"PRAKASAM","PODILI","KesavabhotlaPalem",79.609947,15.713718,37.92,38.49,36.73,36.63,38.39,38.15,39.47,40.15,40.13,39.93
423,1319005,"KURNOOL","KODUMUR","Amadaguntla",77.858915,15.702789,32.56,35.61,32.51,33.24,34.63,35.25,35.74,36.03,35.24,35.59
424,815009,"PRAKASAM","THALLUR","Sarvamitta",79.796656,15.725692,38.2,38.97,37.29,37.12,38.59,39.58,39.96,40.53,40.55,41.29
425,1318013,"KURNOOL","KALLUR","ChinnaTekur",77.996431,15.697776,32.09,35.2,32.42,33.23,34.59,35.15,35.75,35.78,34.87,35.78
426,1313009,"KURNOOL","VELGODE","Pangidigudem1",78.68257,15.721112,28.6,27.34,30.31,30.68,31.97,32.45,33.47,33.46,33.24,33.14
427,813028,"PRAKASAM","DARSI","Samanthapudi",79.714266,15.706472,38.06,38.81,36.84,36.87,38.48,38.69,39.6,40.36,40.34,40.67
428,1319006,"KURNOOL","KODUMUR","Anugonda",77.894674,15.691496,32.56,35.61,32.51,33.24,34.63,35.25,35.74,36.03,35.24,35.59
429,1316012,"KURNOOL","MIDTHUR","Talamudipi",78.363831,15.69388,32.91,35.58,33.09,34.07,35.42,35.7,36.7,36.85,37.02,35.82
430,845015,"PRAKASAM","NAGULUPPALAPADU","Edumudi",80.183217,15.72378,39.01,40.49,39.35,39.18,39.41,40.5,41.41,41.81,41.74,42.26
431,827010,"PRAKASAM","KORISAPADU","Rachapudi",80.14747,15.718294,39.18,40.46,39.09,38.94,39.44,40.37,41.34,41.41,41.59,42.18
432,1320014,"KURNOOL","GONEGANDLA","Ganjihalli",77.534197,15.686726,33.63,34.61,30.55,32.05,34.13,34.67,34.25,34.05,34.08,34.69
433,1318015,"KURNOOL","KALLUR","Bellavaram",77.944483,15.696238,32.56,35.61,32.51,33.24,34.63,35.25,35.74,36.03,35.24,35.59
434,805030,"PRAKASAM","DONAKONDA","WestKambhampadu",79.53785,15.722612,37.2,37.83,36.44,36.1,37.98,37.61,39.04,39.63,39.66,39.48
435,1313002,"KURNOOL","VELGODE","Velpanur",78.497024,15.693157,33.51,35.18,34.01,34.75,35.93,36.23,37.83,37.97,38.16,37.2
436,809007,"PRAKASAM","MARKAPUR","Rayavaram1",79.315522,15.710927,36.52,37.37,35.71,35.2,37.47,36.91,38.05,38.96,38.72,38.72
437,1316013,"KURNOOL","MIDTHUR","Jalakanur",78.314903,15.696628,32.4,35.37,32.77,33.52,35.17,35.37,36.12,36.18,35.75,35.53
438,827007,"PRAKASAM","KORISAPADU","DyvalaRavuru",80.060969,15.708799,39.18,40.46,39.09,38.94,39.44,40.37,41.34,41.41,41.59,42.18
439,827003,"PRAKASAM","KORISAPADU","Somavarappadu",80.03593,15.722375,39.11,40.31,38.33,38.41,39.33,40.4,40.87,41.13,41.25,41.88
440,810005,"PRAKASAM","TARLAPADU","Ganugapenta",79.353529,15.702583,36.8,37.55,35.92,35.56,37.67,37.19,38.43,39.27,39.12,39.12
441,809013,"PRAKASAM","MARKAPUR","SivaramPuram",79.235102,15.721218,34.85,36.1,35.01,34.4,36.73,36.2,37.24,38.02,37.92,37.94
442,810007,"PRAKASAM","TARLAPADU","KandallaPalle",79.387143,15.715023,36.8,37.55,35.92,35.56,37.67,37.19,38.43,39.27,39.12,39.12
443,812003,"PRAKASAM","PODILI","Pamulapadu2",79.623509,15.700745,37.92,38.49,36.73,36.63,38.39,38.15,39.47,40.15,40.13,39.93
444,846006,"PRAKASAM","CHINAGANJAM","Chinaganjam1",80.23204,15.695422,39.01,40.49,39.35,39.18,39.41,40.5,41.41,41.81,41.74,42.26
445,1319003,"KURNOOL","KODUMUR","Kodumur1",77.790791,15.686164,32.54,34.4,31.81,32.69,34.34,34.91,35.03,35.19,34.97,34.79
446,1323001,"KURNOOL","ADONI","Hanavalu",77.149088,15.678004,32.68,33.96,31.94,32,34.25,34.71,34.1,34.47,34.41,34.19
447,890910,"PRAKASAM","MARKAPUR","Forest8",79.178304,15.707902,34.85,36.1,35.01,34.4,36.73,36.2,37.24,38.02,37.92,37.94
448,805029,"PRAKASAM","DONAKONDA","TellaPadu",79.517588,15.719288,37.2,37.83,36.44,36.1,37.98,37.61,39.04,39.63,39.66,39.48
449,811006,"PRAKASAM","KONAKANAMITLA","Veligandla1",79.569137,15.706574,37.92,38.49,36.73,36.63,38.39,38.15,39.47,40.15,40.13,39.93
450,1317011,"KURNOOL","ORVAKAL","Orvakal1",78.167512,15.686324,32.09,34.74,32.48,33.14,34.96,35.06,35.8,35.77,34.98,35.54
451,1322018,"KURNOOL","PEDDAKADUBUR","Tarapuram",77.313956,15.688372,30.83,34.17,30.61,31.53,33.71,34.39,33.49,33.74,33.81,34.19
452,815008,"PRAKASAM","THALLUR","BellamkondavariPalem",79.808811,15.71098,38.2,38.97,37.29,37.12,38.59,39.58,39.96,40.53,40.55,41.29
453,808010,"PRAKASAM","ARDHAVEEDU","BolluPalle",78.921467,15.703873,28.81,28.66,30.61,29.84,32.7,32.57,33.15,33.46,33.57,33.55
454,815014,"PRAKASAM","THALLUR","NagambhotlaPalem",79.822587,15.682161,38.2,38.97,37.29,37.12,38.59,39.58,39.96,40.53,40.55,41.29
455,809019,"PRAKASAM","MARKAPUR","Badekhanpeta",79.193837,15.713187,34.85,36.1,35.01,34.4,36.73,36.2,37.24,38.02,37.92,37.94
456,809020,"PRAKASAM","MARKAPUR","ThippayaPalem",79.164054,15.692319,34.85,36.1,35.01,34.4,36.73,36.2,37.24,38.02,37.92,37.94
457,808003,"PRAKASAM","ARDHAVEEDU","Magutur",79.076353,15.70457,33.15,34.39,34.18,33.21,35.88,35.46,36.33,37,36.95,36.95
458,1323021,"KURNOOL","ADONI","Pesalabanda",77.299679,15.673151,30.83,34.17,30.61,31.53,33.71,34.39,33.49,33.74,33.81,34.19
459,1320011,"KURNOOL","GONEGANDLA","Errabadu",77.654414,15.673194,32.71,34.1,31.28,32.26,34.17,34.69,34.53,34.36,34.4,34.52
460,1322017,"KURNOOL","PEDDAKADUBUR","Rangapuram1",77.334837,15.687069,30.83,34.17,30.61,31.53,33.71,34.39,33.49,33.74,33.81,34.19
461,1320012,"KURNOOL","GONEGANDLA","Neruduppala",77.612927,15.674115,33.66,34.42,30.92,32.16,34.17,34.77,34.62,34.32,34.25,34.67
462,1319008,"KURNOOL","KODUMUR","Yerradoddi",77.859694,15.677909,32.56,35.61,32.51,33.24,34.63,35.25,35.74,36.03,35.24,35.59
463,811010,"PRAKASAM","KONAKANAMITLA","Ambapuram1",79.447471,15.705402,36.8,37.55,35.92,35.56,37.67,37.19,38.43,39.27,39.12,39.12
464,813021,"PRAKASAM","DARSI","RajamPalle",79.6668,15.712236,38.06,38.81,36.84,36.87,38.48,38.69,39.6,40.36,40.34,40.67
465,1323010,"KURNOOL","ADONI","G.Hosalli",77.195235,15.682139,31.43,33.97,31.19,31.55,33.92,34.61,33.63,34.2,34.04,34.16
466,815010,"PRAKASAM","THALLUR","Lakkavaram",79.78503,15.701108,38.2,38.97,37.29,37.12,38.59,39.58,39.96,40.53,40.55,41.29
467,809012,"PRAKASAM","MARKAPUR","YellaPuram",79.245532,15.711349,34.85,36.1,35.01,34.4,36.73,36.2,37.24,38.02,37.92,37.94
468,811011,"PRAKASAM","KONAKANAMITLA","RegumaniPalle",79.416099,15.699093,36.8,37.55,35.92,35.56,37.67,37.19,38.43,39.27,39.12,39.12
469,816009,"PRAKASAM","MARKAPUR","NarasimhaPuram1",79.25711,15.703682,36.52,37.37,35.71,35.2,37.47,36.91,38.05,38.96,38.72,38.72
470,815016,"PRAKASAM","THALLUR","Sivarampuram",79.867414,15.693259,38.71,39.6,37.74,37.71,39.03,40.45,40.43,40.92,40.9,41.71
471,809008,"PRAKASAM","MARKAPUR","Goguladinne",79.281956,15.699386,36.52,37.37,35.71,35.2,37.47,36.91,38.05,38.96,38.72,38.72
472,815015,"PRAKASAM","THALLUR","Somavrappadu",79.843885,15.706877,38.2,38.97,37.29,37.12,38.59,39.58,39.96,40.53,40.55,41.29
473,811005,"PRAKASAM","KONAKANAMITLA","Munagapadu",79.537701,15.69137,37.2,37.83,36.44,36.1,37.98,37.61,39.04,39.63,39.66,39.48
474,845014,"PRAKASAM","NAGULUPPALAPADU","Mattigunta",80.174275,15.702316,39.01,40.49,39.35,39.18,39.41,40.5,41.41,41.81,41.74,42.26
475,1321020,"KURNOOL","YEMMIGANUR","Devibetta",77.416254,15.672843,32.24,34.36,30.45,31.78,33.85,34.37,33.61,33.72,33.79,34.45
476,813030,"PRAKASAM","DARSI","Jamukuladinne",79.691988,15.706693,38.06,38.81,36.84,36.87,38.48,38.69,39.6,40.36,40.34,40.67
477,1332005,"KURNOOL","GADIVEMULA","BilakalaGudur",78.446211,15.68911,32.91,35.58,33.09,34.07,35.42,35.7,36.7,36.85,37.02,35.82
478,1313010,"KURNOOL","VELGODE","Abbirajukunta",78.656321,15.700181,28.6,27.34,30.31,30.68,31.97,32.45,33.47,33.46,33.24,33.14
479,1317006,"KURNOOL","ORVAKAL","Sakunala",78.243734,15.675713,32.09,34.74,32.48,33.14,34.96,35.06,35.8,35.77,34.98,35.54
480,808009,"PRAKASAM","ARDHAVEEDU","Ardhaveedu1",78.961164,15.674667,31.61,32.4,32.98,31.82,34.87,34.55,35.37,35.64,35.82,35.86
481,1317013,"KURNOOL","ORVAKAL","Loddipalle",78.085028,15.681727,31.8,34.44,32.14,32.96,34.53,34.88,35.55,35.41,34.66,35.58
482,1313007,"KURNOOL","VELGODE","Boyarevula",78.560733,15.688076,32.25,32.86,33.28,33.84,34.96,35.65,37.13,37.11,37,36.78
483,828002,"PRAKASAM","MADDIPADU","Gadiyapudi",79.970386,15.692754,39.11,40.31,38.33,38.41,39.33,40.4,40.87,41.13,41.25,41.88
484,1318017,"KURNOOL","KALLUR","Remadur",77.913564,15.677367,32.56,35.61,32.51,33.24,34.63,35.25,35.74,36.03,35.24,35.59
485,1323029,"KURNOOL","ADONI","Isvi",77.237055,15.652683,31.43,33.97,31.19,31.55,33.92,34.61,33.63,34.2,34.04,34.16
486,810001,"PRAKASAM","TARLAPADU","GorugunthalaPadu",79.219956,15.688996,34.85,36.1,35.01,34.4,36.73,36.2,37.24,38.02,37.92,37.94
487,811004,"PRAKASAM","KONAKANAMITLA","BasavaPuram1",79.509359,15.69515,37.2,37.83,36.44,36.1,37.98,37.61,39.04,39.63,39.66,39.48
488,809011,"PRAKASAM","MARKAPUR","Krishnapuram2",79.244194,15.703103,34.85,36.1,35.01,34.4,36.73,36.2,37.24,38.02,37.92,37.94
489,1333017,"KURNOOL","ADONI","Forest9",77.2729,15.657421,30.83,34.17,30.61,31.53,33.71,34.39,33.49,33.74,33.81,34.19
490,1317014,"KURNOOL","ORVAKAL","Bodduvanipalle",78.028847,15.672598,32.09,35.2,32.42,33.23,34.59,35.15,35.75,35.78,34.87,35.78
491,1320008,"KURNOOL","GONEGANDLA","Thippanur",77.698735,15.669821,32.71,34.1,31.28,32.26,34.17,34.69,34.53,34.36,34.4,34.52
492,811003,"PRAKASAM","KONAKANAMITLA","Mummayapalem",79.49535,15.70212,37.2,37.83,36.44,36.1,37.98,37.61,39.04,39.63,39.66,39.48
493,1332001,"KURNOOL","GADIVEMULA","Gani1",78.296521,15.65912,32.4,35.37,32.77,33.52,35.17,35.37,36.12,36.18,35.75,35.53
494,811016,"PRAKASAM","KONAKANAMITLA","BodaPadu",79.480022,15.701707,37.2,37.83,36.44,36.1,37.98,37.61,39.04,39.63,39.66,39.48
495,1320009,"KURNOOL","GONEGANDLA","Lingamdinne",77.736147,15.67452,32.71,34.1,31.28,32.26,34.17,34.69,34.53,34.36,34.4,34.52
496,1332003,"KURNOOL","GADIVEMULA","Gadivemula1",78.406995,15.675224,32.91,35.58,33.09,34.07,35.42,35.7,36.7,36.85,37.02,35.82
497,811012,"PRAKASAM","KONAKANAMITLA","GurralaMadugu",79.399758,15.685152,36.8,37.55,35.92,35.56,37.67,37.19,38.43,39.27,39.12,39.12
498,1323009,"KURNOOL","ADONI","Kadithota",77.219965,15.670375,31.43,33.97,31.19,31.55,33.92,34.61,33.63,34.2,34.04,34.16
499,813031,"PRAKASAM","DARSI","AnnaVaram",79.657544,15.695894,38.06,38.81,36.84,36.87,38.48,38.69,39.6,40.36,40.34,40.67
500,828001,"PRAKASAM","MADDIPADU","Garlapadu",79.952269,15.695403,39.11,40.31,38.33,38.41,39.33,40.4,40.87,41.13,41.25,41.88
501,845001,"PRAKASAM","NAGULUPPALAPADU","Kothakota2",80.042189,15.688301,39.11,40.31,38.33,38.41,39.33,40.4,40.87,41.13,41.25,41.88
502,809021,"PRAKASAM","MARKAPUR","MalyavanthuniPadu",79.193315,15.686121,34.85,36.1,35.01,34.4,36.73,36.2,37.24,38.02,37.92,37.94
503,1323020,"KURNOOL","ADONI","Sulthanapuram",77.299519,15.674961,30.83,34.17,30.61,31.53,33.71,34.39,33.49,33.74,33.81,34.19
504,1317005,"KURNOOL","ORVAKAL","Thippayapalle",78.214051,15.665477,32.09,34.74,32.48,33.14,34.96,35.06,35.8,35.77,34.98,35.54
505,1323022,"KURNOOL","ADONI","Kapati",77.336861,15.664361,30.83,34.17,30.61,31.53,33.71,34.39,33.49,33.74,33.81,34.19
506,1318018,"KURNOOL","KALLUR","Nayakallu",77.937411,15.6619,32.56,35.61,32.51,33.24,34.63,35.25,35.74,36.03,35.24,35.59
507,813003,"PRAKASAM","DARSI","Thummedalapadu",79.687295,15.697024,38.06,38.81,36.84,36.87,38.48,38.69,39.6,40.36,40.34,40.67
508,1318014,"KURNOOL","KALLUR","ChetlaMallapuram",77.970963,15.670249,32.09,35.2,32.42,33.23,34.59,35.15,35.75,35.78,34.87,35.78
509,808011,"PRAKASAM","ARDHAVEEDU","PapineniPalle",78.92235,15.670212,28.81,28.66,30.61,29.84,32.7,32.57,33.15,33.46,33.57,33.55
510,815007,"PRAKASAM","THALLUR","Ramabhadrapuram1",79.838284,15.702761,38.2,38.97,37.29,37.12,38.59,39.58,39.96,40.53,40.55,41.29
511,1332002,"KURNOOL","GADIVEMULA","Manchalakatta",78.340512,15.682429,32.4,35.37,32.77,33.52,35.17,35.37,36.12,36.18,35.75,35.53
512,1323008,"KURNOOL","ADONI","Madire1",77.19892,15.639427,32.22,33.24,29.94,31.18,33.52,34.49,33.37,34.17,34.25,33.81
513,810008,"PRAKASAM","TARLAPADU","Ragasamudram",79.383167,15.680131,36.8,37.55,35.92,35.56,37.67,37.19,38.43,39.27,39.12,39.12
514,1317012,"KURNOOL","ORVAKAL","Meedivemula",78.104674,15.663877,31.8,34.44,32.14,32.96,34.53,34.88,35.55,35.41,34.66,35.58
515,811008,"PRAKASAM","KONAKANAMITLA","ChintaGunta",79.489971,15.676355,37.2,37.83,36.44,36.1,37.98,37.61,39.04,39.63,39.66,39.48
516,829001,"PRAKASAM","CHIMAKURTHI","Ilapavuluru",79.905548,15.681747,38.71,39.6,37.74,37.71,39.03,40.45,40.43,40.92,40.9,41.71
517,813029,"PRAKASAM","DARSI","AkkamambaPuram",79.683757,15.687737,38.06,38.81,36.84,36.87,38.48,38.69,39.6,40.36,40.34,40.67
518,810002,"PRAKASAM","TARLAPADU","Seetanagulavaram",79.2442,15.684911,34.85,36.1,35.01,34.4,36.73,36.2,37.24,38.02,37.92,37.94
519,828003,"PRAKASAM","MADDIPADU","Annangi",79.995573,15.679823,39.11,40.31,38.33,38.41,39.33,40.4,40.87,41.13,41.25,41.88
520,1318021,"KURNOOL","KALLUR","Yaparlapadu",78.003108,15.638788,31.58,34.62,31.66,32.48,34,34.33,34.72,34.89,34.42,34.78
521,810004,"PRAKASAM","TARLAPADU","Kethagudipi",79.305628,15.679533,36.52,37.37,35.71,35.2,37.47,36.91,38.05,38.96,38.72,38.72
522,808005,"PRAKASAM","ARDHAVEEDU","Kakarla",79.109407,15.638513,34.63,35.65,35.48,34.21,37.21,36.52,37.31,38.01,38.04,37.85
523,845012,"PRAKASAM","NAGULUPPALAPADU","Kandlagunta",80.138966,15.69016,39.18,40.46,39.09,38.94,39.44,40.37,41.34,41.41,41.59,42.18
524,811009,"PRAKASAM","KONAKANAMITLA","BuradaPalem",79.473303,15.68834,37.2,37.83,36.44,36.1,37.98,37.61,39.04,39.63,39.66,39.48
525,890932,"PRAKASAM","ARDHAVEEDU","Forest10",79.121891,15.672338,33.15,34.39,34.18,33.21,35.88,35.46,36.33,37,36.95,36.95
526,812004,"PRAKASAM","PODILI","Kunchepalle",79.636753,15.678695,37.92,38.49,36.73,36.63,38.39,38.15,39.47,40.15,40.13,39.93
527,1319010,"KURNOOL","KODUMUR","Mudumalagurthy",77.778093,15.65609,32.54,34.4,31.81,32.69,34.34,34.91,35.03,35.19,34.97,34.79
528,1323002,"KURNOOL","ADONI","Santhekudlur",77.151606,15.641116,32.22,33.24,29.94,31.18,33.52,34.49,33.37,34.17,34.25,33.81
529,1327002,"KURNOOL","DEVANAKONDA","Ternekal",77.539553,15.634728,33.13,34.05,30.24,31.19,33.57,34.37,33.81,33.72,33.67,34.26
530,811017,"PRAKASAM","KONAKANAMITLA","AswarayuniPalem",79.46023,15.678304,37.2,37.83,36.44,36.1,37.98,37.61,39.04,39.63,39.66,39.48
531,810003,"PRAKASAM","TARLAPADU","Surepalle",79.264829,15.676971,36.52,37.37,35.71,35.2,37.47,36.91,38.05,38.96,38.72,38.72
532,811015,"PRAKASAM","KONAKANAMITLA","VaddiMadugu",79.438666,15.680651,36.8,37.55,35.92,35.56,37.67,37.19,38.43,39.27,39.12,39.12
533,1323023,"KURNOOL","ADONI","Arekal",77.370887,15.653665,32.24,34.36,30.45,31.78,33.85,34.37,33.61,33.72,33.79,34.45
534,815012,"PRAKASAM","THALLUR","BoddikuraPadu",79.763287,15.660578,38.2,38.97,37.29,37.12,38.59,39.58,39.96,40.53,40.55,41.29
535,1327003,"KURNOOL","DEVANAKONDA","Palakurthy",77.586714,15.638065,32.72,33.59,30.48,31.13,33.4,34.08,33.61,33.51,33.34,34.16
536,1313008,"KURNOOL","VELGODE","Mothukur",78.551479,15.667345,32.25,32.86,33.28,33.84,34.96,35.65,37.13,37.11,37,36.78
537,1319009,"KURNOOL","KODUMUR","Gorantla1",77.823511,15.622973,32.57,33.71,31.42,32.22,33.98,34.53,34.44,34.59,33.79,34.81
538,1390907,"KURNOOL","ADONI","Adoni1",77.284719,15.636999,31.29,33.59,29.5,31.03,33.4,34.61,33.24,33.73,33.87,33.9
539,1317010,"KURNOOL","ORVAKAL","Guttapadu",78.162153,15.661755,32.09,34.74,32.48,33.14,34.96,35.06,35.8,35.77,34.98,35.54
540,808004,"PRAKASAM","ARDHAVEEDU","PottiBasavaiPalle",79.086982,15.674864,33.15,34.39,34.18,33.21,35.88,35.46,36.33,37,36.95,36.95
541,890911,"PRAKASAM","MARKAPUR","Forest11",79.14882,15.666537,33.15,34.39,34.18,33.21,35.88,35.46,36.33,37,36.95,36.95
542,812009,"PRAKASAM","PODILI","Sudanagunta",79.583446,15.672747,37.92,38.49,36.73,36.63,38.39,38.15,39.47,40.15,40.13,39.93
543,845002,"PRAKASAM","NAGULUPPALAPADU","Nidamanur",80.073049,15.661414,39.18,40.46,39.09,38.94,39.44,40.37,41.34,41.41,41.59,42.18
544,845013,"PRAKASAM","NAGULUPPALAPADU","Uppugundur",80.162919,15.670812,39.01,40.49,39.35,39.18,39.41,40.5,41.41,41.81,41.74,42.26
545,846007,"PRAKASAM","CHINAGANJAM","Pedaganjam",80.215006,15.649487,39.13,39.44,38.95,39.12,39.22,40.49,41.19,41.96,41.27,41.53
546,1326002,"KURNOOL","ASPARI","Mulugundam",77.436449,15.635345,31.96,33.98,29.79,31.11,33.48,34.48,33.31,33.72,33.84,34.08
547,1320015,"KURNOOL","GONEGANDLA","Byluppala",77.498208,15.645299,33.13,34.05,30.24,31.19,33.57,34.37,33.81,33.72,33.67,34.26
548,1323003,"KURNOOL","ADONI","PeddaHarivanam",77.078723,15.617226,33.12,33.85,30.6,31.59,33.82,34.55,33.79,34.58,34.01,33.97
549,815011,"PRAKASAM","THALLUR","Sankaranarayanapuram",79.73079,15.679376,38.06,38.81,36.84,36.87,38.48,38.69,39.6,40.36,40.34,40.67
550,1328001,"KURNOOL","KRISHNAGIRI","Mannegunta",77.80878,15.627702,32.57,33.71,31.42,32.22,33.98,34.53,34.44,34.59,33.79,34.81
551,827009,"PRAKASAM","KORISAPADU","PrasangulaPadu",80.113429,15.679372,39.18,40.46,39.09,38.94,39.44,40.37,41.34,41.41,41.59,42.18
552,810009,"PRAKASAM","TARLAPADU","Kaluzuwwalapadu",79.366894,15.663966,36.8,37.55,35.92,35.56,37.67,37.19,38.43,39.27,39.12,39.12
553,1332008,"KURNOOL","GADIVEMULA","Chennakkapalle",78.339237,15.639552,32.81,35.02,33.09,33.54,35.25,35.52,36.42,35.96,35.92,35.4
554,1320010,"KURNOOL","GONEGANDLA","Kurnur",77.733348,15.637798,32.26,33.26,30.75,31.36,33.39,34.03,33.62,33.54,33.31,34
555,813033,"PRAKASAM","DARSI","Kothapalle1",79.683383,15.67452,38.06,38.81,36.84,36.87,38.48,38.69,39.6,40.36,40.34,40.67
556,1331888,"KURNOOL","BANDIATMAKUR","Forest12",78.686544,15.587046,27.78,26.32,30.5,30.63,31.84,32.12,33.09,33.28,33.09,32.48
557,1332007,"KURNOOL","GADIVEMULA","Bujanur",78.442003,15.663074,32.91,35.58,33.09,34.07,35.42,35.7,36.7,36.85,37.02,35.82
558,1303001,"KURNOOL","BANDIATMAKUR","Narayanapuram1",78.586762,15.652886,32.25,32.86,33.28,33.84,34.96,35.65,37.13,37.11,37,36.78
559,808008,"PRAKASAM","ARDHAVEEDU","Donakonda1",78.999822,15.666432,31.61,32.4,32.98,31.82,34.87,34.55,35.37,35.64,35.82,35.86
560,810010,"PRAKASAM","TARLAPADU","JangamreddiPalle",79.3438,15.672959,36.52,37.37,35.71,35.2,37.47,36.91,38.05,38.96,38.72,38.72
561,810012,"PRAKASAM","TARLAPADU","ThummalaCheruvu",79.282346,15.652028,36.52,37.37,35.71,35.2,37.47,36.91,38.05,38.96,38.72,38.72
562,1304001,"KURNOOL","DEVANAKONDA","Machapuram",77.655729,15.637762,32.26,33.26,30.75,31.36,33.39,34.03,33.62,33.54,33.31,34
563,1332006,"KURNOOL","GADIVEMULA","Pesaravayi",78.475478,15.653302,33.51,35.18,34.01,34.75,35.93,36.23,37.83,37.97,38.16,37.2
564,845011,"PRAKASAM","NAGULUPPALAPADU","NaguluppalaPadu",80.128349,15.649486,39.39,39.84,39.29,39.2,39.54,40.92,41.41,41.47,41.53,42.07
565,1323027,"KURNOOL","ADONI","S.Kondapuram",77.322845,15.645186,31.29,33.59,29.5,31.03,33.4,34.61,33.24,33.73,33.87,33.9
566,811007,"PRAKASAM","KONAKANAMITLA","NagarajuGunta",79.517929,15.66809,37.2,37.83,36.44,36.1,37.98,37.61,39.04,39.63,39.66,39.48
567,828011,"PRAKASAM","MADDIPADU","Doddavaram",79.953015,15.665105,39.11,40.31,38.33,38.41,39.33,40.4,40.87,41.13,41.25,41.88
568,828004,"PRAKASAM","MADDIPADU","GundlaPalle",80.016821,15.666425,39.11,40.31,38.33,38.41,39.33,40.4,40.87,41.13,41.25,41.88
569,808007,"PRAKASAM","ARDHAVEEDU","AyyavariPalle",79.040831,15.663094,31.61,32.4,32.98,31.82,34.87,34.55,35.37,35.64,35.82,35.86
570,812005,"PRAKASAM","PODILI","DasallaPalle",79.660032,15.670048,38.06,38.81,36.84,36.87,38.48,38.69,39.6,40.36,40.34,40.67
571,808006,"PRAKASAM","ARDHAVEEDU","PedaKandukur",79.036217,15.650755,31.61,32.4,32.98,31.82,34.87,34.55,35.37,35.64,35.82,35.86
572,1323024,"KURNOOL","ADONI","Chinnapendekal",77.3939,15.628879,31.96,33.98,29.79,31.11,33.48,34.48,33.31,33.72,33.84,34.08
573,1319007,"KURNOOL","KODUMUR","Laddagiri",77.887875,15.631677,32.54,34.88,32.03,32.9,34.48,34.89,35.12,35.35,34.64,35.52
574,810013,"PRAKASAM","TARLAPADU","Tellapadu",79.24312,15.659622,34.85,36.1,35.01,34.4,36.73,36.2,37.24,38.02,37.92,37.94
575,809022,"PRAKASAM","MARKAPUR","BhupathiPalle",79.17365,15.656583,34.85,36.1,35.01,34.4,36.73,36.2,37.24,38.02,37.92,37.94
576,813032,"PRAKASAM","DARSI","LakshmiNarayanaPuram1",79.67984,15.675325,38.06,38.81,36.84,36.87,38.48,38.69,39.6,40.36,40.34,40.67
577,1320016,"KURNOOL","GONEGANDLA","BandameediAgraharam",77.471441,15.63258,33.13,34.05,30.24,31.19,33.57,34.37,33.81,33.72,33.67,34.26
578,813034,"PRAKASAM","DARSI","Korlamadugu",79.704509,15.659016,38.06,38.81,36.84,36.87,38.48,38.69,39.6,40.36,40.34,40.67
579,1317015,"KURNOOL","ORVAKAL","Uyyalawada1",78.068901,15.635471,31.16,34.37,31.31,31.93,33.64,33.89,34.54,34.62,34.12,34.13
580,810025,"PRAKASAM","TARLAPADU","KondaReddiPalle",79.34117,15.647175,36.38,36.93,35.51,35.15,37.2,36.96,37.92,38.53,38.74,38.38
581,1323026,"KURNOOL","ADONI","Bychigeri",77.351476,15.637528,31.96,33.98,29.79,31.11,33.48,34.48,33.31,33.72,33.84,34.08
582,1333001,"KURNOOL","BANDIATMAKUR","Bhojanam",78.511193,15.648273,34.02,35.92,34.8,34.94,36.18,36.48,37.81,37.7,38.27,37.23
583,829002,"PRAKASAM","CHIMAKURTHI","RangasaiPuram",79.921856,15.670299,38.71,39.6,37.74,37.71,39.03,40.45,40.43,40.92,40.9,41.71
584,812008,"PRAKASAM","PODILI","Zuvvaleru",79.615586,15.653079,37.92,38.49,36.73,36.63,38.39,38.15,39.47,40.15,40.13,39.93
585,828010,"PRAKASAM","MADDIPADU","Venkateswarapuram",79.976141,15.671379,39.11,40.31,38.33,38.41,39.33,40.4,40.87,41.13,41.25,41.88
586,811018,"PRAKASAM","KONAKANAMITLA","VedurrallaPadu",79.461973,15.656867,37.2,37.83,36.44,36.1,37.98,37.61,39.04,39.63,39.66,39.48
587,1395903,"KURNOOL","GADIVEMULA","Undutla",78.368228,15.631633,33.55,35.44,33.87,34.36,35.76,36.06,37.13,36.64,37.27,36.01
588,811023,"PRAKASAM","KONAKANAMITLA","ThuvvaPadu",79.438938,15.640757,36.68,36.92,35.51,35.5,37.17,37.09,38.23,38.87,38.92,38.5
589,833014,"PRAKASAM","NAGULUPPALAPADU","Pothavaram1",80.102184,15.661178,39.18,40.46,39.09,38.94,39.44,40.37,41.34,41.41,41.59,42.18
590,812006,"PRAKASAM","PODILI","Ramulaveedu",79.677585,15.650458,38.06,38.81,36.84,36.87,38.48,38.69,39.6,40.36,40.34,40.67
591,1318020,"KURNOOL","KALLUR","Ulindakonda",77.971052,15.631002,31.58,34.62,31.66,32.48,34,34.33,34.72,34.89,34.42,34.78
592,1323030,"KURNOOL","ADONI","Parvathapuram",77.245756,15.627135,32.22,33.24,29.94,31.18,33.52,34.49,33.37,34.17,34.25,33.81
593,811014,"PRAKASAM","KONAKANAMITLA","MarriPalem",79.415197,15.654073,36.8,37.55,35.92,35.56,37.67,37.19,38.43,39.27,39.12,39.12
594,812011,"PRAKASAM","PODILI","KondayaPalem",79.541901,15.662044,37.2,37.83,36.44,36.1,37.98,37.61,39.04,39.63,39.66,39.48
595,810014,"PRAKASAM","TARLAPADU","Tarlupadu",79.210979,15.652896,34.85,36.1,35.01,34.4,36.73,36.2,37.24,38.02,37.92,37.94
596,890912,"PRAKASAM","CHIMAKURTHI","Forest13",79.835063,15.637201,38.59,38.65,37.32,37.61,38.78,39.35,39.89,40.5,40.46,40.74
597,1318019,"KURNOOL","KALLUR","Konganapadu",77.927171,15.633241,32.54,34.88,32.03,32.9,34.48,34.89,35.12,35.35,34.64,35.52
598,1328002,"KURNOOL","KRISHNAGIRI","Pothugal",77.770827,15.608989,32.57,33.71,31.42,32.22,33.98,34.53,34.44,34.59,33.79,34.81
599,828005,"PRAKASAM","MADDIPADU","RachavariPalem",80.048009,15.649397,39.13,40.01,38.31,38.83,39.3,40.7,40.95,41.17,41.19,41.75
600,811013,"PRAKASAM","KONAKANAMITLA","Garladinne2",79.388456,15.647387,36.68,36.92,35.51,35.5,37.17,37.09,38.23,38.87,38.92,38.5
601,1317008,"KURNOOL","ORVAKAL","Husainapuram",78.180273,15.640602,31.88,34.7,32.02,32.52,34.41,34.62,35.42,35.35,34.83,34.78
602,828006,"PRAKASAM","MADDIPADU","KeerthiPadu",80.029962,15.650877,39.11,40.31,38.33,38.41,39.33,40.4,40.87,41.13,41.25,41.88
603,1327004,"KURNOOL","DEVANAKONDA","Kappatralla",77.647759,15.600926,32.72,33.59,30.48,31.13,33.4,34.08,33.61,33.51,33.34,34.16
604,1329888,"KURNOOL","PANYAM","Forest14",78.288875,15.564101,32.81,35.02,33.09,33.54,35.25,35.52,36.42,35.96,35.92,35.4
605,811019,"PRAKASAM","KONAKANAMITLA","Konakanamitla1",79.488295,15.639064,36.91,37.04,36.02,36.05,37.47,37.32,38.86,39.2,39.42,38.97
606,810023,"PRAKASAM","TARLAPADU","MangalaKunta",79.312268,15.623658,36.38,36.93,35.51,35.15,37.2,36.96,37.92,38.53,38.74,38.38
607,810011,"PRAKASAM","TARLAPADU","ObayaPalle",79.333454,15.651978,36.52,37.37,35.71,35.2,37.47,36.91,38.05,38.96,38.72,38.72
608,829003,"PRAKASAM","CHIMAKURTHI","PallaMalli",79.89363,15.650666,38.71,39.6,37.74,37.71,39.03,40.45,40.43,40.92,40.9,41.71
609,1317007,"KURNOOL","ORVAKAL","Brahmanapalle",78.231144,15.641746,31.88,34.7,32.02,32.52,34.41,34.62,35.42,35.35,34.83,34.78
610,829004,"PRAKASAM","CHIMAKURTHI","Nekunambadu",79.924415,15.650242,38.71,39.6,37.74,37.71,39.03,40.45,40.43,40.92,40.9,41.71
611,1317009,"KURNOOL","ORVAKAL","N.Konthalapadu",78.143502,15.634447,31.16,34.37,31.31,31.93,33.64,33.89,34.54,34.62,34.12,34.13
612,812010,"PRAKASAM","PODILI","Thummagunta",79.581958,15.650872,37.92,38.49,36.73,36.63,38.39,38.15,39.47,40.15,40.13,39.93
613,812007,"PRAKASAM","MADDIPADU","Mallavaram",79.979789,15.647939,39.13,40.01,38.31,38.83,39.3,40.7,40.95,41.17,41.19,41.75
614,810024,"PRAKASAM","TARLAPADU","JagannadhaPuram1",79.302769,15.648393,36.38,36.93,35.51,35.15,37.2,36.96,37.92,38.53,38.74,38.38
615,1333004,"KURNOOL","BANDIATMAKUR","PeddaDevalapuram",78.547863,15.643361,34.02,35.92,34.8,34.94,36.18,36.48,37.81,37.7,38.27,37.23
616,828009,"PRAKASAM","PODILI","Mallavaram1",79.639406,15.648514,37.65,38.08,36.47,36.78,38.13,37.95,39.45,39.81,40.12,39.71
617,1323004,"KURNOOL","ADONI","Yadavalle",77.124559,15.619431,33.12,33.85,30.6,31.59,33.82,34.55,33.79,34.58,34.01,33.97
618,1317016,"KURNOOL","ORVAKAL","Uppalapadu",78.116474,15.629042,31.16,34.37,31.31,31.93,33.64,33.89,34.54,34.62,34.12,34.13
619,1390908,"KURNOOL","ADONI","AdoniM",77.276163,15.622664,31.29,33.59,29.5,31.03,33.4,34.61,33.24,33.73,33.87,33.9
620,812012,"PRAKASAM","PODILI","Salakanuthala",79.548066,15.650099,37.2,37.83,36.44,36.1,37.98,37.61,39.04,39.63,39.66,39.48
621,1329004,"KURNOOL","VELDURTHIKURNOOL","Pullagummi",78.025452,15.624224,31.58,34.62,31.66,32.48,34,34.33,34.72,34.89,34.42,34.78
622,1332009,"KURNOOL","GADIVEMULA","Chindukuru",78.446686,15.634959,33.55,35.44,33.87,34.36,35.76,36.06,37.13,36.64,37.27,36.01
623,1323025,"KURNOOL","ADONI","Sambagallu",77.367045,15.618534,31.96,33.98,29.79,31.11,33.48,34.48,33.31,33.72,33.84,34.08
624,1329005,"KURNOOL","VELDURTHIKURNOOL","Kalugotla2",78.046704,15.591137,31.58,34.62,31.66,32.48,34,34.33,34.72,34.89,34.42,34.78
625,810021,"PRAKASAM","TARLAPADU","ChennaReddiPalle",79.251651,15.633772,36.38,36.93,35.51,35.15,37.2,36.96,37.92,38.53,38.74,38.38
626,1323039,"KURNOOL","ADONI","MandagiriRural",77.291088,15.596511,31.29,33.59,29.5,31.03,33.4,34.61,33.24,33.73,33.87,33.9
627,811020,"PRAKASAM","KONAKANAMITLA","VeerabhadraPuram",79.521076,15.651206,37.2,37.83,36.44,36.1,37.98,37.61,39.04,39.63,39.66,39.48
628,1390909,"KURNOOL","ADONI","Vengalapuram",77.294789,15.625192,31.29,33.59,29.5,31.03,33.4,34.61,33.24,33.73,33.87,33.9
629,813035,"PRAKASAM","DARSI","ThripuraSundariPuram",79.727679,15.644756,38.21,38.59,36.96,37.22,38.53,38.54,39.67,40.14,40.3,40.3
630,809023,"PRAKASAM","MARKAPUR","BondalaPadu",79.184234,15.629394,35.32,36.32,35.33,34.58,37.07,36.66,37.54,38.26,38.38,38.16
631,834001,"PRAKASAM","CUMBUM","Jangamguntla",79.146232,15.640815,34.63,35.65,35.48,34.21,37.21,36.52,37.31,38.01,38.04,37.85
632,1323041,"KURNOOL","ADONI","Nettekal",77.342597,15.617775,31.29,33.59,29.5,31.03,33.4,34.61,33.24,33.73,33.87,33.9
633,828008,"PRAKASAM","MADDIPADU","Kolachanakota",79.997761,15.641418,39.13,40.01,38.31,38.83,39.3,40.7,40.95,41.17,41.19,41.75
634,1323005,"KURNOOL","ADONI","Baladur",77.130768,15.604216,33.12,33.85,30.6,31.59,33.82,34.55,33.79,34.58,34.01,33.97
635,845010,"PRAKASAM","NAGULUPPALAPADU","Machavaram1",80.159812,15.639522,39.13,39.44,38.95,39.12,39.22,40.49,41.19,41.96,41.27,41.53
636,1333003,"KURNOOL","BANDIATMAKUR","Santhajutur",78.538342,15.620136,34.02,35.92,34.8,34.94,36.18,36.48,37.81,37.7,38.27,37.23
637,1326004,"KURNOOL","ASPARI","Banavanur",77.492095,15.605714,33.13,34.05,30.24,31.19,33.57,34.37,33.81,33.72,33.67,34.26
638,812023,"PRAKASAM","PODILI","Nimmavaram",79.658963,15.632272,38.21,38.59,36.96,37.22,38.53,38.54,39.67,40.14,40.3,40.3
639,813036,"PRAKASAM","DARSI","KrishnaPuram",79.704992,15.64121,38.21,38.59,36.96,37.22,38.53,38.54,39.67,40.14,40.3,40.3
640,1317017,"KURNOOL","ORVAKAL","Kalva",78.182675,15.612411,31.88,34.7,32.02,32.52,34.41,34.62,35.42,35.35,34.83,34.78
641,829005,"PRAKASAM","CHIMAKURTHI","Chandrapadu",79.941231,15.631893,38.85,39.43,37.72,38.2,39.02,40.14,40.34,40.9,40.78,41.27
642,1327006,"KURNOOL","DEVANAKONDA","P.Kotakonda",77.700921,15.596373,32.26,33.26,30.75,31.36,33.39,34.03,33.62,33.54,33.31,34
643,845004,"PRAKASAM","NAGULUPPALAPADU","Chadalawada",80.098681,15.620277,39.39,39.84,39.29,39.2,39.54,40.92,41.41,41.47,41.53,42.07
644,1328006,"KURNOOL","KRISHNAGIRI","ShotriumYerragudi",77.837834,15.608119,32.57,33.71,31.42,32.22,33.98,34.53,34.44,34.59,33.79,34.81
645,812013,"PRAKASAM","PODILI","MugaChinthala",79.524555,15.635283,36.91,37.04,36.02,36.05,37.47,37.32,38.86,39.2,39.42,38.97
646,1333002,"KURNOOL","BANDIATMAKUR","Paramatur",78.502081,15.626749,34.02,35.92,34.8,34.94,36.18,36.48,37.81,37.7,38.27,37.23
647,1323037,"KURNOOL","ADONI","Kallubavi",77.249163,15.597078,32.22,33.24,29.94,31.18,33.52,34.49,33.37,34.17,34.25,33.81
648,810026,"PRAKASAM","TARLAPADU","LakshmakkaPalle",79.351063,15.624904,36.68,36.92,35.51,35.5,37.17,37.09,38.23,38.87,38.92,38.5
649,813037,"PRAKASAM","DARSI","Pedauyyalawada",79.718795,15.630094,38.21,38.59,36.96,37.22,38.53,38.54,39.67,40.14,40.3,40.3
650,812014,"PRAKASAM","PODILI","Dondleru",79.557006,15.632123,37.65,38.08,36.47,36.78,38.13,37.95,39.45,39.81,40.12,39.71
651,1333006,"KURNOOL","BANDIATMAKUR","GaliChennaiahPalem",78.575535,15.611746,32.28,33.01,33.54,33.6,34.85,35.05,36.59,36.66,36.71,36.74
652,810015,"PRAKASAM","TARLAPADU","KarumaniPalle",79.221783,15.632902,35.32,36.32,35.33,34.58,37.07,36.66,37.54,38.26,38.38,38.16
653,1323006,"KURNOOL","ADONI","ChinnaGonehal",77.159295,15.603107,32.22,33.24,29.94,31.18,33.52,34.49,33.37,34.17,34.25,33.81
654,828007,"PRAKASAM","MADDIPADU","VellamPalle",80.005197,15.629958,39.13,40.01,38.31,38.83,39.3,40.7,40.95,41.17,41.19,41.75
655,829009,"PRAKASAM","CHIMAKURTHI","Devarapalem",79.78682,15.628441,38.59,38.65,37.32,37.61,38.78,39.35,39.89,40.5,40.46,40.74
656,828013,"PRAKASAM","MADDIPADU","Maddipadu1",80.019968,15.616989,39.13,40.01,38.31,38.83,39.3,40.7,40.95,41.17,41.19,41.75
657,1328007,"KURNOOL","KRISHNAGIRI","Tallagokulapadu",77.877551,15.60369,32.54,34.88,32.03,32.9,34.48,34.89,35.12,35.35,34.64,35.52
658,890913,"PRAKASAM","TARLAPADU","Forest15",79.358682,15.596263,36.68,36.92,35.51,35.5,37.17,37.09,38.23,38.87,38.92,38.5
659,812021,"PRAKASAM","PODILI","AkkaCheruvu",79.582991,15.633335,37.65,38.08,36.47,36.78,38.13,37.95,39.45,39.81,40.12,39.71
660,1323040,"KURNOOL","ADONI","Dibbanakal1",77.319418,15.604843,31.29,33.59,29.5,31.03,33.4,34.61,33.24,33.73,33.87,33.9
661,1323031,"KURNOOL","ADONI","V.Kondapuram",77.214994,15.611255,32.22,33.24,29.94,31.18,33.52,34.49,33.37,34.17,34.25,33.81
662,1323007,"KURNOOL","ADONI","ChinnaHarivanam",77.181611,15.596081,32.22,33.24,29.94,31.18,33.52,34.49,33.37,34.17,34.25,33.81
663,1326001,"KURNOOL","ASPARI","DudadudiKotakonda",77.406355,15.590073,31.96,33.98,29.79,31.11,33.48,34.48,33.31,33.72,33.84,34.08
664,1326003,"KURNOOL","ASPARI","Karumanchi",77.454595,15.591989,33.13,34.05,30.24,31.19,33.57,34.37,33.81,33.72,33.67,34.26
665,1332011,"KURNOOL","GADIVEMULA","Gadigarevula",78.437048,15.60994,33.55,35.44,33.87,34.36,35.76,36.06,37.13,36.64,37.27,36.01
666,1332010,"KURNOOL","GADIVEMULA","Karimaddala",78.488285,15.606443,34.02,35.92,34.8,34.94,36.18,36.48,37.81,37.7,38.27,37.23
667,829012,"PRAKASAM","CHIMAKURTHI","Chimakurthi1",79.859441,15.598666,38.85,39.43,37.72,38.2,39.02,40.14,40.34,40.9,40.78,41.27
668,828012,"PRAKASAM","MADDIPADU","Nelatur",79.982959,15.616883,39.13,40.01,38.31,38.83,39.3,40.7,40.95,41.17,41.19,41.75
669,1323015,"KURNOOL","ADONI","Ballekallu",77.208005,15.595078,32.22,33.24,29.94,31.18,33.52,34.49,33.37,34.17,34.25,33.81
670,812022,"PRAKASAM","PODILI","Podili1",79.624546,15.603272,37.65,38.08,36.47,36.78,38.13,37.95,39.45,39.81,40.12,39.71
671,829007,"PRAKASAM","CHIMAKURTHI","Bandlamudi",79.895828,15.620181,38.85,39.43,37.72,38.2,39.02,40.14,40.34,40.9,40.78,41.27
672,829008,"PRAKASAM","CHIMAKURTHI","Padamatinaidupalem",79.88097,15.624355,38.85,39.43,37.72,38.2,39.02,40.14,40.34,40.9,40.78,41.27
673,810016,"PRAKASAM","TARLAPADU","MeerjaPeta",79.222451,15.617147,35.32,36.32,35.33,34.58,37.07,36.66,37.54,38.26,38.38,38.16
674,808012,"PRAKASAM","ARDHAVEEDU","Yerraguntla1",78.920548,15.623556,28.71,30.38,31.98,31.21,33.82,33.35,34.14,34.41,34.59,34.39
675,812026,"PRAKASAM","PODILI","AnnaVaram1",79.696462,15.625751,38.21,38.59,36.96,37.22,38.53,38.54,39.67,40.14,40.3,40.3
676,815013,"PRAKASAM","THALLUR","SurayaPalem",79.743388,15.63284,38.21,38.59,36.96,37.22,38.53,38.54,39.67,40.14,40.3,40.3
677,1327010,"KURNOOL","DEVANAKONDA","Karivemula",77.58443,15.587385,32.72,33.59,30.48,31.13,33.4,34.08,33.61,33.51,33.34,34.16
678,1323042,"KURNOOL","ADONI","Salakalakonda",77.349206,15.598366,31.29,33.59,29.5,31.03,33.4,34.61,33.24,33.73,33.87,33.9
679,1327001,"KURNOOL","DEVANAKONDA","Potlapadu",77.524717,15.594291,33.13,34.05,30.24,31.19,33.57,34.37,33.81,33.72,33.67,34.26
680,834002,"PRAKASAM","CUMBUM","LanjaKota",79.16294,15.612251,35.32,36.32,35.33,34.58,37.07,36.66,37.54,38.26,38.38,38.16
681,1329002,"KURNOOL","VELDURTHIKURNOOL","Mallepalle",77.949835,15.598859,32.54,34.88,32.03,32.9,34.48,34.89,35.12,35.35,34.64,35.52
682,812024,"PRAKASAM","PODILI","Teegadurthipadu",79.669742,15.614064,38.21,38.59,36.96,37.22,38.53,38.54,39.67,40.14,40.3,40.3
683,828015,"PRAKASAM","MADDIPADU","Nandipadu",80.050897,15.627809,39.39,39.84,39.29,39.2,39.54,40.92,41.41,41.47,41.53,42.07
684,813038,"PRAKASAM","DARSI","ChinaUyyalawada",79.738243,15.614249,38.21,38.59,36.96,37.22,38.53,38.54,39.67,40.14,40.3,40.3
685,1324001,"KURNOOL","HOLAGUNDA","Gajjehalli",77.04791,15.572457,32.92,34.07,30.8,32.06,34.19,34.69,34.38,34.49,34.4,34.43
686,1324004,"KURNOOL","HOLAGUNDA","Ingaladahal",77.138453,15.592077,33.12,33.85,30.6,31.59,33.82,34.55,33.79,34.58,34.01,33.97
687,1317018,"KURNOOL","ORVAKAL","Palakolanu",78.132833,15.600283,31.16,34.37,31.31,31.93,33.64,33.89,34.54,34.62,34.12,34.13
688,1329006,"KURNOOL","VELDURTHIKURNOOL","Bukkapuram1",78.089613,15.592238,31.16,34.37,31.31,31.93,33.64,33.89,34.54,34.62,34.12,34.13
689,1303006,"KURNOOL","ADONI","Basapuram",77.363533,15.586311,31.96,33.98,29.79,31.11,33.48,34.48,33.31,33.72,33.84,34.08
690,811021,"PRAKASAM","KONAKANAMITLA","Siddavaram",79.510291,15.605221,36.91,37.04,36.02,36.05,37.47,37.32,38.86,39.2,39.42,38.97
691,812020,"PRAKASAM","PODILI","MadalavariPalem",79.582469,15.619126,37.65,38.08,36.47,36.78,38.13,37.95,39.45,39.81,40.12,39.71
692,808013,"PRAKASAM","ARDHAVEEDU","Bogolu",79.043839,15.598956,32.92,34.53,34.73,33.48,36.55,35.74,36.62,37.06,37.18,37.06
693,828016,"PRAKASAM","MADDIPADU","Inamanamellur",80.062177,15.603617,39.39,39.84,39.29,39.2,39.54,40.92,41.41,41.47,41.53,42.07
694,845009,"PRAKASAM","NAGULUPPALAPADU","Raparla",80.15534,15.616979,39.13,39.44,38.95,39.12,39.22,40.49,41.19,41.96,41.27,41.53
695,1331001,"KURNOOL","PANYAM","Pinnapuram1",78.246027,15.583414,31.88,34.7,32.02,32.52,34.41,34.62,35.42,35.35,34.83,34.78
696,829006,"PRAKASAM","CHIMAKURTHI","TorragudiPadu",79.909505,15.615106,38.85,39.43,37.72,38.2,39.02,40.14,40.34,40.9,40.78,41.27
697,811024,"PRAKASAM","KONAKANAMITLA","VinjavarthiPadu",79.391693,15.603472,36.68,36.92,35.51,35.5,37.17,37.09,38.23,38.87,38.92,38.5
698,1330888,"KURNOOL","VELDURTHIKURNOOL","Forest16",78.018866,15.596747,31.58,34.62,31.66,32.48,34,34.33,34.72,34.89,34.42,34.78
699,811022,"PRAKASAM","KONAKANAMITLA","Katragunta",79.443377,15.59892,36.68,36.92,35.51,35.5,37.17,37.09,38.23,38.87,38.92,38.5
700,1323045,"KURNOOL","ADONI","Gonabavi",77.322517,15.590929,31.29,33.59,29.5,31.03,33.4,34.61,33.24,33.73,33.87,33.9
701,1324003,"KURNOOL","HOLAGUNDA","MaddiLingadahalli",77.136067,15.581981,33.12,33.85,30.6,31.59,33.82,34.55,33.79,34.58,34.01,33.97
702,812015,"PRAKASAM","PODILI","ObulakkaPalle",79.549835,15.606783,36.91,37.04,36.02,36.05,37.47,37.32,38.86,39.2,39.42,38.97
703,1328003,"KURNOOL","KRISHNAGIRI","Agaveli",77.735663,15.575154,32.26,33.26,30.75,31.36,33.39,34.03,33.62,33.54,33.31,34
704,843009,"PRAKASAM","SANTHANUTHLAPADU","PidathalagudiPadu",79.961574,15.604834,39.13,40.01,38.31,38.83,39.3,40.7,40.95,41.17,41.19,41.75
705,890914,"PRAKASAM","CHIMAKURTHI","Forest17",79.79683,15.607505,38.59,38.65,37.32,37.61,38.78,39.35,39.89,40.5,40.46,40.74
706,828014,"PRAKASAM","MADDIPADU","Seetharampuram1",80.032235,15.612627,39.13,40.01,38.31,38.83,39.3,40.7,40.95,41.17,41.19,41.75
707,812019,"PRAKASAM","PODILI","RamayanaKandrika",79.573462,15.610712,37.65,38.08,36.47,36.78,38.13,37.95,39.45,39.81,40.12,39.71
708,829014,"PRAKASAM","CHIMAKURTHI","Yerragudipadu",79.923791,15.600433,38.85,39.43,37.72,38.2,39.02,40.14,40.34,40.9,40.78,41.27
709,810020,"PRAKASAM","TARLAPADU","NagendlaMudupu",79.263659,15.60117,36.38,36.93,35.51,35.15,37.2,36.96,37.92,38.53,38.74,38.38
710,829010,"PRAKASAM","CHIMAKURTHI","Nippatlapadu",79.769354,15.604195,38.59,38.65,37.32,37.61,38.78,39.35,39.89,40.5,40.46,40.74
711,812025,"PRAKASAM","PODILI","AmudalaPalle",79.681689,15.609439,38.21,38.59,36.96,37.22,38.53,38.54,39.67,40.14,40.3,40.3
712,1317019,"KURNOOL","ORVAKAL","Somyajulapalle",78.164388,15.582149,31.88,34.7,32.02,32.52,34.41,34.62,35.42,35.35,34.83,34.78
713,1328008,"KURNOOL","KRISHNAGIRI","Thogarchedu",77.871578,15.569334,32.54,34.88,32.03,32.9,34.48,34.89,35.12,35.35,34.64,35.52
714,845018,"PRAKASAM","NAGULUPPALAPADU","Kanuparthi",80.203301,15.589064,39.13,39.44,38.95,39.12,39.22,40.49,41.19,41.96,41.27,41.53
715,1328005,"KURNOOL","KRISHNAGIRI","Krishnagiri1",77.827019,15.563867,32.57,33.71,31.42,32.22,33.98,34.53,34.44,34.59,33.79,34.81
716,812027,"PRAKASAM","PODILI","ChintagumPalle",79.700977,15.605097,38.21,38.59,36.96,37.22,38.53,38.54,39.67,40.14,40.3,40.3
717,810017,"PRAKASAM","TARLAPADU","GollaPalle",79.219125,15.591435,35.32,36.32,35.33,34.58,37.07,36.66,37.54,38.26,38.38,38.16
718,1327007,"KURNOOL","DEVANAKONDA","S.Thimmapuram",77.67738,15.585503,32.26,33.26,30.75,31.36,33.39,34.03,33.62,33.54,33.31,34
719,834004,"PRAKASAM","CUMBUM","KandulaPuram",79.128937,15.59964,34.63,35.65,35.48,34.21,37.21,36.52,37.31,38.01,38.04,37.85
720,1323044,"KURNOOL","ADONI","Huvvanur",77.339716,15.581153,31.29,33.59,29.5,31.03,33.4,34.61,33.24,33.73,33.87,33.9
721,810022,"PRAKASAM","TARLAPADU","TadivariPalle",79.299165,15.590526,36.38,36.93,35.51,35.15,37.2,36.96,37.92,38.53,38.74,38.38
722,1324005,"KURNOOL","HOLAGUNDA","PeddaGonehal",77.140342,15.570914,33.12,33.85,30.6,31.59,33.82,34.55,33.79,34.58,34.01,33.97
723,1323046,"KURNOOL","ADONI","Virupapuram",77.322797,15.567374,31.29,33.59,29.5,31.03,33.4,34.61,33.24,33.73,33.87,33.9
724,1323033,"KURNOOL","ADONI","NaganathanaHalli",77.212842,15.557854,32.22,33.24,29.94,31.18,33.52,34.49,33.37,34.17,34.25,33.81
725,845007,"PRAKASAM","NAGULUPPALAPADU","CheervanuppalaPadu",80.110342,15.589741,39.39,39.84,39.29,39.2,39.54,40.92,41.41,41.47,41.53,42.07
726,845008,"PRAKASAM","NAGULUPPALAPADU","AmmanaBrolu",80.145729,15.584226,39.39,39.84,39.29,39.2,39.54,40.92,41.41,41.47,41.53,42.07
727,843008,"PRAKASAM","SANTHANUTHLAPADU","KonaganiVariPalem",79.938835,15.601369,38.85,39.43,37.72,38.2,39.02,40.14,40.34,40.9,40.78,41.27
728,834009,"PRAKASAM","CUMBUM","Cumbum1",79.096137,15.589245,34.63,35.65,35.48,34.21,37.21,36.52,37.31,38.01,38.04,37.85
729,1324002,"KURNOOL","HOLAGUNDA","Vandavagali",77.085373,15.551347,33.12,33.85,30.6,31.59,33.82,34.55,33.79,34.58,34.01,33.97
730,1333008,"KURNOOL","BANDIATMAKUR","BandiAtmakur1",78.547874,15.581988,34.02,35.92,34.8,34.94,36.18,36.48,37.81,37.7,38.27,37.23
731,1329001,"KURNOOL","VELDURTHIKURNOOL","Narlapuram",77.940896,15.579048,32.54,34.88,32.03,32.9,34.48,34.89,35.12,35.35,34.64,35.52
732,1333007,"KURNOOL","BANDIATMAKUR","Ramapuram2",78.552951,15.595512,32.28,33.01,33.54,33.6,34.85,35.05,36.59,36.66,36.71,36.74
733,834003,"PRAKASAM","CUMBUM","NadimPalle",79.144571,15.599468,34.63,35.65,35.48,34.21,37.21,36.52,37.31,38.01,38.04,37.85
734,1332012,"KURNOOL","GADIVEMULA","Thirupadu",78.445548,15.59102,33.55,35.44,33.87,34.36,35.76,36.06,37.13,36.64,37.27,36.01
735,1329003,"KURNOOL","VELDURTHIKURNOOL","Ramallakota",78.001539,15.574382,31.58,34.62,31.66,32.48,34,34.33,34.72,34.89,34.42,34.78
736,835001,"PRAKASAM","RACHERLA","Akaveedu1",78.93316,15.569391,28.71,30.38,31.98,31.21,33.82,33.35,34.14,34.41,34.59,34.39
737,1332014,"KURNOOL","GADIVEMULA","Durvesi",78.41597,15.577848,33.55,35.44,33.87,34.36,35.76,36.06,37.13,36.64,37.27,36.01
738,1326005,"KURNOOL","ASPARI","Khyruppala",77.470662,15.546477,32.53,33.55,29.83,30.55,33.26,34.18,33.07,33.48,33.26,33.7
739,812028,"PRAKASAM","PODILI","LakshmiPuram",79.719215,15.60165,38.21,38.59,36.96,37.22,38.53,38.54,39.67,40.14,40.3,40.3
740,1327011,"KURNOOL","DEVANAKONDA","Kunkanur",77.540898,15.562136,33.13,34.05,30.24,31.19,33.57,34.37,33.81,33.72,33.67,34.26
741,812018,"PRAKASAM","PODILI","NandiPalem",79.574433,15.597791,37.65,38.08,36.47,36.78,38.13,37.95,39.45,39.81,40.12,39.71
742,829017,"PRAKASAM","CHIMAKURTHI","RajupalemLaxmipuram",79.824708,15.582227,38.59,38.65,37.32,37.61,38.78,39.35,39.89,40.5,40.46,40.74
743,1326011,"KURNOOL","ASPARI","Tangaradona",77.371166,15.557027,31.96,33.98,29.79,31.11,33.48,34.48,33.31,33.72,33.84,34.08
744,829011,"PRAKASAM","CHIMAKURTHI","Budavada1",79.792904,15.585438,38.59,38.65,37.32,37.61,38.78,39.35,39.89,40.5,40.46,40.74
745,834005,"PRAKASAM","CUMBUM","AurangaBad",79.161467,15.585474,35.32,36.32,35.33,34.58,37.07,36.66,37.54,38.26,38.38,38.16
746,1326008,"KURNOOL","ASPARI","Yatakallu",77.42869,15.551684,31.96,33.98,29.79,31.11,33.48,34.48,33.31,33.72,33.84,34.08
747,829013,"PRAKASAM","CHIMAKURTHI","KandurivariAgraharam",79.8849,15.593117,38.85,39.43,37.72,38.2,39.02,40.14,40.34,40.9,40.78,41.27
748,1333009,"KURNOOL","BANDIATMAKUR","Yerraguntla2",78.485159,15.573094,34.02,35.92,34.8,34.94,36.18,36.48,37.81,37.7,38.27,37.23
749,1327008,"KURNOOL","DEVANAKONDA","Chellelichelimala",77.687124,15.538337,32.17,32.57,30.3,30.92,33.13,33.87,33.16,33.05,32.75,33.72
750,1323036,"KURNOOL","ADONI","Dhanapuram",77.262018,15.560487,31.29,33.59,29.5,31.03,33.4,34.61,33.24,33.73,33.87,33.9
751,833013,"PRAKASAM","BESTAVARIPETA","RetlaPalle",79.190811,15.584887,35.32,36.32,35.33,34.58,37.07,36.66,37.54,38.26,38.38,38.16
752,829015,"PRAKASAM","CHIMAKURTHI","Manchikalapadu",79.90329,15.585436,38.85,39.43,37.72,38.2,39.02,40.14,40.34,40.9,40.78,41.27
753,1329010,"KURNOOL","VELDURTHIKURNOOL","Veldurthi1",77.938517,15.545455,32.55,33.68,31.76,32.29,34.4,34.31,34.56,34.37,33.9,34.96
754,843002,"PRAKASAM","SANTHANUTHLAPADU","Rudravaram2",79.988747,15.594483,39.13,40.01,38.31,38.83,39.3,40.7,40.95,41.17,41.19,41.75
755,834013,"PRAKASAM","CUMBUM","LingapuramKhandrika",79.016921,15.586378,32.92,34.53,34.73,33.48,36.55,35.74,36.62,37.06,37.18,37.06
756,810019,"PRAKASAM","TARLAPADU","PathePuram",79.248514,15.587607,35.32,36.32,35.33,34.58,37.07,36.66,37.54,38.26,38.38,38.16
757,812029,"PRAKASAM","PODILI","Thalamalla",79.717664,15.582886,38.21,38.59,36.96,37.22,38.53,38.54,39.67,40.14,40.3,40.3
758,828018,"PRAKASAM","MADDIPADU","PedaKothaPalle",80.007597,15.574385,39.13,40.01,38.31,38.83,39.3,40.7,40.95,41.17,41.19,41.75
759,812016,"PRAKASAM","PODILI","Kambhalapadu",79.568264,15.579507,37.65,38.08,36.47,36.78,38.13,37.95,39.45,39.81,40.12,39.71
760,845005,"PRAKASAM","NAGULUPPALAPADU","MaddiralaPadu",80.089778,15.591373,39.39,39.84,39.29,39.2,39.54,40.92,41.41,41.47,41.53,42.07
761,1324006,"KURNOOL","HOLAGUNDA","Hebbatam",77.150177,15.545951,31.88,32.9,29.17,30.57,33.08,33.98,32.81,33.44,33.68,33.2
762,830002,"PRAKASAM","MARRIPUDI","KellamPalle1",79.684879,15.56347,38.21,38.59,36.96,37.22,38.53,38.54,39.67,40.14,40.3,40.3
763,810018,"PRAKASAM","TARLAPADU","RolagamPadu",79.212467,15.574051,35.32,36.32,35.33,34.58,37.07,36.66,37.54,38.26,38.38,38.16
764,834012,"PRAKASAM","CUMBUM","LingaPuram",79.045667,15.565988,32.92,34.53,34.73,33.48,36.55,35.74,36.62,37.06,37.18,37.06
765,828017,"PRAKASAM","MADDIPADU","Doddavarappadu",80.034025,15.585719,39.13,40.01,38.31,38.83,39.3,40.7,40.95,41.17,41.19,41.75
766,830001,"PRAKASAM","MARRIPUDI","GosukondaAgraharam",79.68639,15.587009,38.21,38.59,36.96,37.22,38.53,38.54,39.67,40.14,40.3,40.3
767,1327009,"KURNOOL","DEVANAKONDA","Jilledubudakala",77.627697,15.55021,32.72,33.59,30.48,31.13,33.4,34.08,33.61,33.51,33.34,34.16
768,1332013,"KURNOOL","GADIVEMULA","Koratamaddi",78.446182,15.573144,33.55,35.44,33.87,34.36,35.76,36.06,37.13,36.64,37.27,36.01
769,1330003,"KURNOOL","BETHAMCHERLA","Emboy",78.112537,15.551081,31.16,34.37,31.31,31.93,33.64,33.89,34.54,34.62,34.12,34.13
770,811028,"PRAKASAM","KONAKANAMITLA","BudamkayalaPadu",79.41487,15.577516,36.68,36.92,35.51,35.5,37.17,37.09,38.23,38.87,38.92,38.5
771,812030,"PRAKASAM","PODILI","UppalaPadu",79.744775,15.575326,38.21,38.59,36.96,37.22,38.53,38.54,39.67,40.14,40.3,40.3
772,1326010,"KURNOOL","ASPARI","Thurvagal",77.400502,15.552046,31.96,33.98,29.79,31.11,33.48,34.48,33.31,33.72,33.84,34.08
773,803010,"PRAKASAM","MARRIPUDI","RajuPalem1",79.61651,15.568364,37.65,38.08,36.47,36.78,38.13,37.95,39.45,39.81,40.12,39.71
774,811027,"PRAKASAM","KONAKANAMITLA","Nagampalle",79.395814,15.573309,36.68,36.92,35.51,35.5,37.17,37.09,38.23,38.87,38.92,38.5
775,1331002,"KURNOOL","PANYAM","Gorukallu",78.393998,15.56524,33.55,35.44,33.87,34.36,35.76,36.06,37.13,36.64,37.27,36.01
776,811025,"PRAKASAM","KONAKANAMITLA","Salanuthala",79.374967,15.564226,36.68,36.92,35.51,35.5,37.17,37.09,38.23,38.87,38.92,38.5
777,843013,"PRAKASAM","SANTHANUTHLAPADU","MattiPadu",79.95609,15.576467,39.13,40.01,38.31,38.83,39.3,40.7,40.95,41.17,41.19,41.75
778,811032,"PRAKASAM","KONAKANAMITLA","Chinarikatla1",79.535127,15.560011,36.91,37.04,36.02,36.05,37.47,37.32,38.86,39.2,39.42,38.97
779,834008,"PRAKASAM","CUMBUM","Kagitalagudem",79.120461,15.576279,34.63,35.65,35.48,34.21,37.21,36.52,37.31,38.01,38.04,37.85
780,1326013,"KURNOOL","ASPARI","Nagarur",77.303842,15.53716,31.23,33.06,29.22,30.51,33.23,34.22,32.93,33.53,33.78,33.27
781,811031,"PRAKASAM","KONAKANAMITLA","Batchalakurapadu",79.487824,15.570121,36.91,37.04,36.02,36.05,37.47,37.32,38.86,39.2,39.42,38.97
782,845006,"PRAKASAM","NAGULUPPALAPADU","ChekuraPadu",80.087297,15.575362,39.39,39.84,39.29,39.2,39.54,40.92,41.41,41.47,41.53,42.07
783,834006,"PRAKASAM","CUMBUM","Ravipadu1",79.151352,15.56944,35.32,36.32,35.33,34.58,37.07,36.66,37.54,38.26,38.38,38.16
784,1328004,"KURNOOL","KRISHNAGIRI","Yerukalacheruvu",77.767492,15.547034,32.56,32.98,31.18,31.89,34.01,34.36,34.24,33.8,33.42,34.63
785,1333010,"KURNOOL","BANDIATMAKUR","Kakanur",78.502885,15.563026,34.02,35.92,34.8,34.94,36.18,36.48,37.81,37.7,38.27,37.23
786,1324010,"KURNOOL","HOLAGUNDA","Holagunda1",77.044611,15.496995,33.17,33.81,29.85,31.68,33.89,34.75,34.09,34.42,34.67,34.69
787,833007,"PRAKASAM","BESTAVARIPETA","ChinthalaPalem",79.106669,15.569663,34.63,35.65,35.48,34.21,37.21,36.52,37.31,38.01,38.04,37.85
